{
"type": "FeatureCollection",
"name": "Accessible_Pedestrian_Signals",
"crs": { "type": "name", "properties": { "name": "urn:ogc:def:crs:OGC:1.3:CRS84" } },
"features": [
{ "type": "Feature", "properties": { "OBJECTID": 608, "INT": "215", "Location": "N TRYON ST_OLD CONCORD RD- Alice Galvan", "Status": "installed", "GlobalID": "4b3c7d1d-43dc-438e-9d11-a01459efd8ff" }, "geometry": { "type": "Point", "coordinates": [ -80.772279306015804, 35.2627715650844 ] } },
{ "type": "Feature", "properties": { "OBJECTID": 609, "INT": "650", "Location": "E WOODLAWN RD_PARK RD SHOPPING CENTER DR_PARKTOWNE VILLAGE DR \r", "Status": "requested", "GlobalID": "25f86b41-b96b-4318-bd4f-70aef9ff0ad3" }, "geometry": { "type": "Point", "coordinates": [ -80.848003133799494, 35.1724122537954 ] } },
{ "type": "Feature", "properties": { "OBJECTID": 610, "INT": "41", "Location": "E 3RD ST_S COLLEGE ST", "Status": "requested", "GlobalID": "5000d76f-1510-481d-b28b-fdf571c7889c" }, "geometry": { "type": "Point", "coordinates": [ -80.844203518489607, 35.224709961649701 ] } },
{ "type": "Feature", "properties": { "OBJECTID": 611, "INT": "1523", "Location": "BIRNEN DR_JOHNSTON RD_PARK RD", "Status": "installed", "GlobalID": "4b8d6345-2bc8-46a6-9e33-8e0d5c73e5f4" }, "geometry": { "type": "Point", "coordinates": [ -80.859539028406402, 35.096542478933998 ] } },
{ "type": "Feature", "properties": { "OBJECTID": 612, "INT": "1625", "Location": "ELIZABETH AV_PEASE LN", "Status": "installed", "GlobalID": "d7877632-c8c1-4efe-9b78-1b447f3f9ab0" }, "geometry": { "type": "Point", "coordinates": [ -80.831233757561805, 35.217464813680003 ] } },
{ "type": "Feature", "properties": { "OBJECTID": 613, "INT": "639", "Location": "EAST BV_SCOTT AV", "Status": "installed", "GlobalID": "22ba04ec-0d75-4133-a3e3-2e6e598381d4" }, "geometry": { "type": "Point", "coordinates": [ -80.843700569909998, 35.201233779926703 ] } },
{ "type": "Feature", "properties": { "OBJECTID": 614, "INT": "490", "Location": "GREENWICH RD_RANDOLPH RD", "Status": "requested", "GlobalID": "f43160b3-7c46-4bbe-9dbe-bae6ad5cc7f1" }, "geometry": { "type": "Point", "coordinates": [ -80.800902106324898, 35.178116496871702 ] } },
{ "type": "Feature", "properties": { "OBJECTID": 615, "INT": "362", "Location": "MALLARD CREEK CHURCH RD_MALLARD CREEK RD_PROSPERITY CHURCH RD", "Status": "installed", "GlobalID": "57a4d001-914b-45f0-99e1-395f203660d6" }, "geometry": { "type": "Point", "coordinates": [ -80.767732666371501, 35.341614220386397 ] } },
{ "type": "Feature", "properties": { "OBJECTID": 616, "INT": "426", "Location": "E 7TH ST_N CASWELL RD_PECAN AV", "Status": "requested", "GlobalID": "e2f20d14-99cb-4e4c-9711-a9f223f5979f" }, "geometry": { "type": "Point", "coordinates": [ -80.817883451047095, 35.212226498594902 ] } },
{ "type": "Feature", "properties": { "OBJECTID": 617, "INT": "461", "Location": "CENTRAL AV_EASTLAND MALL DY_BELL SOUTH DY", "Status": "installed", "GlobalID": "e39f4b02-db82-4fe6-a3a6-bec088ba1634" }, "geometry": { "type": "Point", "coordinates": [ -80.754643525851804, 35.208413372569296 ] } },
{ "type": "Feature", "properties": { "OBJECTID": 618, "INT": "281", "Location": "E W T HARRIS BV_HICKORY GROVE RD\r", "Status": "requested", "GlobalID": "1d1b4e3f-69ab-4ae6-834a-301a76ae91c1" }, "geometry": { "type": "Point", "coordinates": [ -80.724912393188205, 35.223178532269699 ] } },
{ "type": "Feature", "properties": { "OBJECTID": 619, "INT": "63", "Location": "E TRADE ST_N COLLEGE ST_S COLLEGE ST", "Status": "requested", "GlobalID": "eb286aae-7594-4ef2-a654-a8dcc348f9b2" }, "geometry": { "type": "Point", "coordinates": [ -80.841972546585097, 35.226243068053897 ] } },
{ "type": "Feature", "properties": { "OBJECTID": 620, "INT": "452", "Location": "ARDREY KELL RD_COMMUNITY HOUSE RD", "Status": "installed", "GlobalID": "f7746aeb-db5f-4dec-ab43-0e8041ec4bf2" }, "geometry": { "type": "Point", "coordinates": [ -80.820513201795904, 35.030337932760801 ] } },
{ "type": "Feature", "properties": { "OBJECTID": 621, "INT": "616", "Location": "POINDEXTER DR_SOUTH BV", "Status": "installed", "GlobalID": "007e5735-b5fe-40ee-98ce-443c85deac58" }, "geometry": { "type": "Point", "coordinates": [ -80.866019182433902, 35.201336417569699 ] } },
{ "type": "Feature", "properties": { "OBJECTID": 622, "INT": "635", "Location": "EAST BV_EUCLID AV", "Status": "installed", "GlobalID": "24c1b2f3-ada5-4018-ab31-7c51e02cf169" }, "geometry": { "type": "Point", "coordinates": [ -80.855403816956894, 35.210015610539998 ] } },
{ "type": "Feature", "properties": { "OBJECTID": 623, "INT": "250", "Location": "EASTWAY DR_SUGAR CREEK ROAD", "Status": "requested", "GlobalID": "20a5e2ba-e9cf-4bd6-9f55-40b477e2349c" }, "geometry": { "type": "Point", "coordinates": [ -80.7798954996411, 35.242530420269297 ] } },
{ "type": "Feature", "properties": { "OBJECTID": 624, "INT": "285", "Location": "SUTHER RD_UNIVERSITY CITY BV", "Status": "installed", "GlobalID": "85d0c49c-e13c-49dd-b592-8e164197e057" }, "geometry": { "type": "Point", "coordinates": [ -80.729189232386503, 35.3024448505642 ] } },
{ "type": "Feature", "properties": { "OBJECTID": 625, "INT": "485", "Location": "CHEROKEE RD_PROVIDENCE RD", "Status": "installed", "GlobalID": "83073f4e-a1c9-424f-805e-018346e3b9ac" }, "geometry": { "type": "Point", "coordinates": [ -80.824855927100302, 35.2024720836177 ] } },
{ "type": "Feature", "properties": { "OBJECTID": 626, "INT": "444", "Location": "ALBEMARLE RD_N SHARON AMITY RD", "Status": "installed", "GlobalID": "24540803-59ae-468c-86e8-0e127aa073f6" }, "geometry": { "type": "Point", "coordinates": [ -80.760583987464599, 35.201722643360903 ] } },
{ "type": "Feature", "properties": { "OBJECTID": 627, "INT": "493", "Location": "RANDOLPH_SARDIS", "Status": "requested", "GlobalID": "823e0985-9d8d-44e0-bd3f-d100628dfbbd" }, "geometry": { "type": "Point", "coordinates": [ -80.787088091583996, 35.160339277866797 ] } },
{ "type": "Feature", "properties": { "OBJECTID": 628, "INT": "626", "Location": "OLD PINEVILLE RD_TYVOLA RD", "Status": "installed", "GlobalID": "b5920834-611f-4016-bd35-cafe637e9ba6" }, "geometry": { "type": "Point", "coordinates": [ -80.877669842935106, 35.165418302541603 ] } },
{ "type": "Feature", "properties": { "OBJECTID": 629, "INT": "450", "Location": "E W T HARRIS BV_IDLEWILD RD", "Status": "installed", "GlobalID": "e35d1732-d882-4d3d-8e74-33af649339be" }, "geometry": { "type": "Point", "coordinates": [ -80.729972153747497, 35.185904844567901 ] } },
{ "type": "Feature", "properties": { "OBJECTID": 630, "INT": "1632", "Location": "BEATTIES FORD RD_PED BEACON (MID BLOCK) (between Hildebran & St. Marks)", "Status": "installed", "GlobalID": "30241183-37ef-46aa-8904-09cd1f6219db" }, "geometry": { "type": "Point", "coordinates": [ -80.855220991139802, 35.260119584750697 ] } },
{ "type": "Feature", "properties": { "OBJECTID": 631, "INT": "322", "Location": "EASTWAY DR_NORTHPARK MALL DY", "Status": "installed", "GlobalID": "cebf7a01-aeca-4560-b8a7-997d0b1f7bdf" }, "geometry": { "type": "Point", "coordinates": [ -80.777830138484305, 35.257223499828598 ] } },
{ "type": "Feature", "properties": { "OBJECTID": 632, "INT": "1667", "Location": "JW Clay MIDBLOCK PED BEACON", "Status": "installed", "GlobalID": "21aba5da-6818-48ac-a0ad-642106f908a6" }, "geometry": { "type": "Point", "coordinates": [ -80.748760102829607, 35.312988412489503 ] } },
{ "type": "Feature", "properties": { "OBJECTID": 633, "INT": "474", "Location": "MONROE RD_N WENDOVER RD", "Status": "installed", "GlobalID": "5b9619c1-b685-453b-834f-1117d2b05557" }, "geometry": { "type": "Point", "coordinates": [ -80.791306983176895, 35.196762363255303 ] } },
{ "type": "Feature", "properties": { "OBJECTID": 634, "INT": "757", "Location": "ARCHDALE DR_PARK ROYAL AV - Courtney Graham", "Status": "requested", "GlobalID": "4088f35f-53c0-4227-9418-a26724ad2ccb" }, "geometry": { "type": "Point", "coordinates": [ -80.862382955714196, 35.147441003478498 ] } },
{ "type": "Feature", "properties": { "OBJECTID": 635, "INT": "411", "Location": "3RD-4TH CONNECTOR ST_CHARLOTTETOWNE AV_E 3RD ST", "Status": "installed", "GlobalID": "39152ca1-9234-4ec2-b6ea-4112a331d623" }, "geometry": { "type": "Point", "coordinates": [ -80.830937035891097, 35.213945731671998 ] } },
{ "type": "Feature", "properties": { "OBJECTID": 636, "INT": "1595", "Location": "SOUTH BV_WHITTON ST", "Status": "installed", "GlobalID": "f0752bbc-09f3-4173-9ca7-84646ef8dd35" }, "geometry": { "type": "Point", "coordinates": [ -80.874612542791695, 35.191168100314798 ] } },
{ "type": "Feature", "properties": { "OBJECTID": 637, "INT": "1435", "Location": "ELM LN_PINEVILLE-MATTHEWS RD - south leg", "Status": "requested", "GlobalID": "c38db78b-b45e-4b7c-9232-a5f178d45fe7" }, "geometry": { "type": "Point", "coordinates": [ -80.8229602020116, 35.0840923072967 ] } },
{ "type": "Feature", "properties": { "OBJECTID": 638, "INT": "833", "Location": "Beatties Ford Rd & Russell Ave", "Status": null, "GlobalID": "6b5a3c67-b9d7-44c4-b5ec-3e6495c795d8" }, "geometry": { "type": "Point", "coordinates": [ -80.855565301633803, 35.257266762291103 ] } },
{ "type": "Feature", "properties": { "OBJECTID": 639, "INT": "634", "Location": "SHARON RD WEST_SOUTH BV", "Status": "installed", "GlobalID": "7f184423-dd02-4a33-9482-b49659b1db31" }, "geometry": { "type": "Point", "coordinates": [ -80.881165009010402, 35.119626643640103 ] } },
{ "type": "Feature", "properties": { "OBJECTID": 640, "INT": "64", "Location": "E TRADE ST_N BREVARD ST_S BREVARD ST", "Status": "requested", "GlobalID": "473f9c2c-1155-4299-89b0-85478c5ecef7" }, "geometry": { "type": "Point", "coordinates": [ -80.839996192269695, 35.2245713578397 ] } },
{ "type": "Feature", "properties": { "OBJECTID": 641, "INT": "86", "Location": "E 6TH ST_N TRYON ST_W 6TH ST", "Status": "requested", "GlobalID": "6ae6f8c6-d9c5-40eb-ac93-5dd2bd93ef86" }, "geometry": { "type": "Point", "coordinates": [ -80.840835489638394, 35.228773322037 ] } },
{ "type": "Feature", "properties": { "OBJECTID": 642, "INT": "1703", "Location": "STEELE CREEK NEAR BRANCH BEND BEACON", "Status": "installed", "GlobalID": "24354d60-f958-4a6e-8602-f9e3683bce82" }, "geometry": { "type": "Point", "coordinates": [ -80.972860803878405, 35.145171370494602 ] } },
{ "type": "Feature", "properties": { "OBJECTID": 643, "INT": "482", "Location": "LUMARKA DR_MONROE RD_THERMAL RD", "Status": "installed", "GlobalID": "1c4c36cd-e270-4c95-af94-4c37b1a6e97b" }, "geometry": { "type": "Point", "coordinates": [ -80.753216210421201, 35.163341173653002 ] } },
{ "type": "Feature", "properties": { "OBJECTID": 644, "INT": "647", "Location": "HEATHER LN_PARK RD", "Status": "installed", "GlobalID": "00af7c9e-9e6b-4450-83ad-eaa810ea0480" }, "geometry": { "type": "Point", "coordinates": [ -80.851131225262193, 35.174345137560799 ] } },
{ "type": "Feature", "properties": { "OBJECTID": 645, "INT": "620", "Location": "OLD PINEVILLE RD_SCALEYBARK RD_SOUTH BV", "Status": "installed", "GlobalID": "332da2ef-7425-4b47-8c10-534a872f109a" }, "geometry": { "type": "Point", "coordinates": [ -80.875624428267599, 35.188818750387199 ] } },
{ "type": "Feature", "properties": { "OBJECTID": 646, "INT": "615", "Location": "IDEAL WY_REMOUNT RD_SOUTH BV", "Status": "installed", "GlobalID": "b19d12a8-bf18-4f94-8cac-c9270fbacf23" }, "geometry": { "type": "Point", "coordinates": [ -80.865280031116299, 35.202406551551597 ] } },
{ "type": "Feature", "properties": { "OBJECTID": 647, "INT": "1692", "Location": "BEREWICK COMMONS PY_DIXIE RIVER RD_NEW FASHION WY", "Status": "installed", "GlobalID": "3857fd14-b9b6-455d-95a0-609b0ee014b2" }, "geometry": { "type": "Point", "coordinates": [ -80.973546939354506, 35.1674828789657 ] } },
{ "type": "Feature", "properties": { "OBJECTID": 648, "INT": "529", "Location": "FAIRVIEW RD_SHARON RD", "Status": "installed", "GlobalID": "835b003c-6578-4ac9-b32c-1c9b6d1e2e8f" }, "geometry": { "type": "Point", "coordinates": [ -80.830893335259105, 35.148421208997 ] } },
{ "type": "Feature", "properties": { "OBJECTID": 649, "INT": "629", "Location": "ARCHDALE DR_OLD PINEVILLE RD", "Status": "installed", "GlobalID": "cd004055-ce7e-468b-a2fb-732a473e141d" }, "geometry": { "type": "Point", "coordinates": [ -80.877853632120207, 35.152925847277601 ] } },
{ "type": "Feature", "properties": { "OBJECTID": 650, "INT": "24", "Location": "E STONEWALL ST_S MCDOWELL ST", "Status": "installed", "GlobalID": "5e02f868-5c0f-4342-918f-a38c2cca2d64" }, "geometry": { "type": "Point", "coordinates": [ -80.840527062895902, 35.2164961059988 ] } },
{ "type": "Feature", "properties": { "OBJECTID": 651, "INT": "535", "Location": "CARMEL RD_QUAIL HOLLOW RD", "Status": "installed", "GlobalID": "5f50735b-5e3f-48ae-af27-28ead2c5e984" }, "geometry": { "type": "Point", "coordinates": [ -80.824073037374305, 35.115462940437901 ] } },
{ "type": "Feature", "properties": { "OBJECTID": 652, "INT": "454", "Location": "CENTRAL AV_MORNINGSIDE DR", "Status": "installed", "GlobalID": "ad6ab844-286c-4596-9a06-13011cb956b5" }, "geometry": { "type": "Point", "coordinates": [ -80.799228543835397, 35.219303399776798 ] } },
{ "type": "Feature", "properties": { "OBJECTID": 653, "INT": "281", "Location": "E W T HARRIS BV_HICKORY GROVE RD\r", "Status": "installed", "GlobalID": "4680caf2-be1f-45fd-a955-551dd80099fd" }, "geometry": { "type": "Point", "coordinates": [ -80.724912393188205, 35.223178532269699 ] } },
{ "type": "Feature", "properties": { "OBJECTID": 654, "INT": "782", "Location": "CRESCENT EXECUTIVE DR_MICROSOFT WY_W ARROWOOD RD", "Status": "installed", "GlobalID": "c1a59d4c-b40b-4e87-861a-a6e1f112dc97" }, "geometry": { "type": "Point", "coordinates": [ -80.918240740156705, 35.142777009388801 ] } },
{ "type": "Feature", "properties": { "OBJECTID": 655, "INT": "214", "Location": "E EASTWAY DR_N TRYON ST_W EASTWAY DR", "Status": "installed", "GlobalID": "e1e41c4c-3f58-4ddb-bf8f-bf373b366ffb" }, "geometry": { "type": "Point", "coordinates": [ -80.777327527099104, 35.259638214353899 ] } },
{ "type": "Feature", "properties": { "OBJECTID": 656, "INT": "654", "Location": "FAIRVIEW RD_PARK RD_TYVOLA RD", "Status": "installed", "GlobalID": "f163f9b8-fc68-418a-9e42-422f2dc769cb" }, "geometry": { "type": "Point", "coordinates": [ -80.848597263147795, 35.1528380196225 ] } },
{ "type": "Feature", "properties": { "OBJECTID": 657, "INT": "429", "Location": "CENTRAL AV_THOMAS AV", "Status": "installed", "GlobalID": "7e6a5101-ab75-4d26-b11f-4c67ec448308" }, "geometry": { "type": "Point", "coordinates": [ -80.812215550155102, 35.220331978371398 ] } },
{ "type": "Feature", "properties": { "OBJECTID": 658, "INT": "560", "Location": "ALBEMARLE RD_EXECUTIVE CENTER DR_JENKINS DR", "Status": "installed", "GlobalID": "f4287b64-695d-4a2f-b7ee-e4f424b65097" }, "geometry": { "type": "Point", "coordinates": [ -80.744061621025097, 35.203211301867597 ] } },
{ "type": "Feature", "properties": { "OBJECTID": 659, "INT": "419", "Location": "E 5TH ST_HAWTHORNE LN", "Status": "installed", "GlobalID": "d1d25cae-c737-4595-82a0-58187a796ad6" }, "geometry": { "type": "Point", "coordinates": [ -80.824263787048906, 35.214007178138097 ] } },
{ "type": "Feature", "properties": { "OBJECTID": 660, "INT": "418", "Location": "ELIZABETH AV_HAWTHORNE LN", "Status": "installed", "GlobalID": "dcf35172-e4e1-40fd-b454-0049593c58de" }, "geometry": { "type": "Point", "coordinates": [ -80.825597963647695, 35.212900386469201 ] } },
{ "type": "Feature", "properties": { "OBJECTID": 661, "INT": "415", "Location": "E 10TH ST_CENTRAL AV_LOUISE AV", "Status": "installed", "GlobalID": "df8daa48-9b63-4b3e-ba18-e5179ba3f725" }, "geometry": { "type": "Point", "coordinates": [ -80.821655244866406, 35.221932271821103 ] } },
{ "type": "Feature", "properties": { "OBJECTID": 662, "INT": "1629", "Location": "MCALPINE STATION DR_MONROE RD_TIMBER SPRINGS DR", "Status": "installed", "GlobalID": "01d4c9a7-ac8f-4e70-9477-d293be1d7980" }, "geometry": { "type": "Point", "coordinates": [ -80.748411761988393, 35.155909536076898 ] } },
{ "type": "Feature", "properties": { "OBJECTID": 663, "INT": "766", "Location": "CAROLINA PAVILION DR N_SOUTH BV", "Status": "installed", "GlobalID": "ac2290c3-370d-4872-af6e-3199094c8c10" }, "geometry": { "type": "Point", "coordinates": [ -80.881446484082602, 35.1074701497487 ] } },
{ "type": "Feature", "properties": { "OBJECTID": 664, "INT": "648", "Location": "E WOODLAWN RD_PARK RD- Tracey Peterson at DHHS", "Status": "installed", "GlobalID": "44a30547-2813-4df3-989f-716d5645ba6f" }, "geometry": { "type": "Point", "coordinates": [ -80.851158825204706, 35.172072894648998 ] } },
{ "type": "Feature", "properties": { "OBJECTID": 665, "INT": "1615", "Location": "BROADRICK BV_UNIVERSITY CITY BV", "Status": "installed", "GlobalID": "2275dd55-3fd4-4831-8df0-1fe354da3877" }, "geometry": { "type": "Point", "coordinates": [ -80.731241254794298, 35.301356729232701 ] } },
{ "type": "Feature", "properties": { "OBJECTID": 666, "INT": "1427", "Location": "Albemarle_Regal Oaks - by RyanBondroff DHHS", "Status": "installed", "GlobalID": "6f34dd0f-7613-462d-a3ef-21db75356a9f" }, "geometry": { "type": "Point", "coordinates": [ -80.730774120766, 35.202531282936903 ] } },
{ "type": "Feature", "properties": { "OBJECTID": 667, "INT": "421", "Location": "RAMA ROAD ELEMENTARY SCHOOL PED BEACON MID BLOCK", "Status": "installed", "GlobalID": "c3701b2a-7dbd-4326-9e80-b0e41c90ce70" }, "geometry": { "type": "Point", "coordinates": [ -80.771257606374505, 35.169002772749501 ] } },
{ "type": "Feature", "properties": { "OBJECTID": 668, "INT": "428", "Location": "CENTRAL AV_PECAN AV", "Status": "installed", "GlobalID": "f251c000-199c-4ca1-a932-101363aba547" }, "geometry": { "type": "Point", "coordinates": [ -80.8135937132935, 35.220399264343797 ] } },
{ "type": "Feature", "properties": { "OBJECTID": 669, "INT": "788", "Location": "JOHNSTON_JOHN J DELANEY", "Status": "installed", "GlobalID": "ef51cab6-932f-4ca5-b3ed-386b136e50c4" }, "geometry": { "type": "Point", "coordinates": [ -80.849485610581496, 35.057864307089098 ] } },
{ "type": "Feature", "properties": { "OBJECTID": 670, "INT": "663", "Location": "GLENEAGLES RD_PARK RD_SHARON RD WEST", "Status": "installed", "GlobalID": "ec803a59-ece0-4bfa-865c-b99a36c85a21" }, "geometry": { "type": "Point", "coordinates": [ -80.855557507862201, 35.118145901623102 ] } },
{ "type": "Feature", "properties": { "OBJECTID": 671, "INT": "604", "Location": "E BLAND ST_SOUTH BV", "Status": "installed", "GlobalID": "34de75cc-5381-4177-878e-9aa4678bed92" }, "geometry": { "type": "Point", "coordinates": [ -80.852975155944094, 35.215687476077697 ] } },
{ "type": "Feature", "properties": { "OBJECTID": 672, "INT": "624", "Location": "SENECA PL_SOUTH BV", "Status": "installed", "GlobalID": "cbc107f3-ca5f-48bf-a7cf-7e2b5e94872d" }, "geometry": { "type": "Point", "coordinates": [ -80.876040384719602, 35.167784598391002 ] } },
{ "type": "Feature", "properties": { "OBJECTID": 673, "INT": "74", "Location": "E 5TH ST_N TRYON ST_W 5TH ST", "Status": "requested", "GlobalID": "4c3f6981-cf84-4545-a1a6-6223eac82ea7" }, "geometry": { "type": "Point", "coordinates": [ -80.841944913487794, 35.227995427666997 ] } },
{ "type": "Feature", "properties": { "OBJECTID": 674, "INT": "611", "Location": "CAMDEN RD_EAST BV_WEST BV", "Status": "installed", "GlobalID": "096b56fb-baea-436d-a941-480417e52a5b" }, "geometry": { "type": "Point", "coordinates": [ -80.858825537048503, 35.2125701764433 ] } },
{ "type": "Feature", "properties": { "OBJECTID": 675, "INT": "628", "Location": "ARCHDALE DR_SOUTH BV", "Status": "installed", "GlobalID": "87bd76a6-d1c1-4b30-9210-5575718abe87" }, "geometry": { "type": "Point", "coordinates": [ -80.876318130058607, 35.152699839457 ] } },
{ "type": "Feature", "properties": { "OBJECTID": 676, "INT": "823", "Location": "BEATTIES FORD RD_LASALLE ST", "Status": "installed", "GlobalID": "410a4dcf-9699-4d79-a55a-bc211c665a1e" }, "geometry": { "type": "Point", "coordinates": [ -80.854714999402006, 35.262991850466101 ] } },
{ "type": "Feature", "properties": { "OBJECTID": 677, "INT": "459", "Location": "CENTRAL AV_ROSEHAVEN DR", "Status": "installed", "GlobalID": "d171990b-3ffa-4fa2-bab2-fcc8dc509d52" }, "geometry": { "type": "Point", "coordinates": [ -80.762751236492207, 35.212138930381698 ] } },
{ "type": "Feature", "properties": { "OBJECTID": 678, "INT": "1507", "Location": "Pineville Matthews and Rea", "Status": "installed", "GlobalID": "0f0a35c2-3cb6-4b18-83fe-75d4280b5b60" }, "geometry": { "type": "Point", "coordinates": [ -80.811868124069505, 35.0874831351708 ] } },
{ "type": "Feature", "properties": { "OBJECTID": 679, "INT": "1726", "Location": "S MINT ST_W 1ST ST", "Status": "installed", "GlobalID": "ac17e9e7-ac1a-4c30-ab4f-f48137721a79" }, "geometry": { "type": "Point", "coordinates": [ -80.850029736844405, 35.226370212592499 ] } },
{ "type": "Feature", "properties": { "OBJECTID": 680, "INT": "307", "Location": "MILTON RD_N SHARON AMITY RD", "Status": "installed", "GlobalID": "312c88b0-52dd-4616-899a-d388e8ec71ce" }, "geometry": { "type": "Point", "coordinates": [ -80.7378951447687, 35.236914292422703 ] } },
{ "type": "Feature", "properties": { "OBJECTID": 681, "INT": "794", "Location": "E ARROWOOD RD_ENGLAND ST_OLD PINEVILLE RD", "Status": "installed", "GlobalID": "7c069753-43fe-4254-b52f-84031953a586" }, "geometry": { "type": "Point", "coordinates": [ -80.879350966645006, 35.137839948519499 ] } },
{ "type": "Feature", "properties": { "OBJECTID": 682, "INT": "1671", "Location": "Charlotte Catholic midblock", "Status": "installed", "GlobalID": "9dd26561-398f-4a86-825a-9c37f0b4f3af" }, "geometry": { "type": "Point", "coordinates": [ -80.849906362033494, 35.087697437729098 ] } },
{ "type": "Feature", "properties": { "OBJECTID": 683, "INT": "506", "Location": "PROVIDENCE RD_QUEENS RD", "Status": "installed", "GlobalID": "0d9d3c89-5a8c-4342-af16-607bea82fed8" }, "geometry": { "type": "Point", "coordinates": [ -80.827216497520197, 35.1959217281074 ] } },
{ "type": "Feature", "properties": { "OBJECTID": 684, "INT": "642", "Location": "KENILWORTH AV_PARK RD", "Status": "installed", "GlobalID": "5f7955f2-ef06-4170-a96d-f463941fa373" }, "geometry": { "type": "Point", "coordinates": [ -80.851057881006597, 35.195774841270797 ] } },
{ "type": "Feature", "properties": { "OBJECTID": 685, "INT": "409", "Location": "ELIZABETH AV_N KINGS DR", "Status": "installed", "GlobalID": "0beb6855-4c4b-49f0-8f7f-61e5247bd0ee" }, "geometry": { "type": "Point", "coordinates": [ -80.8321321548204, 35.218173971311899 ] } },
{ "type": "Feature", "properties": { "OBJECTID": 686, "INT": "1597", "Location": "BALLANTYNE COMMONS PY_DURANT BV_JOHN J DELANEY DR", "Status": "installed", "GlobalID": "ab6c9094-4bf8-4bbb-92f4-935815e19b2f" }, "geometry": { "type": "Point", "coordinates": [ -80.854718422177697, 35.055719428583501 ] } },
{ "type": "Feature", "properties": { "OBJECTID": 687, "INT": "622", "Location": "E WOODLAWN RD_OLD PINEVILLE RD", "Status": "installed", "GlobalID": "e292504c-b057-4ec0-9d12-75a131ef4242" }, "geometry": { "type": "Point", "coordinates": [ -80.879654397285506, 35.178007120622503 ] } },
{ "type": "Feature", "properties": { "OBJECTID": 688, "INT": "1605", "Location": "Carson _South_Lexington (w/in 1/4 mi of LRT station)", "Status": "installed", "GlobalID": "642a5334-cb2a-4a9e-afe7-053a3c76a358" }, "geometry": { "type": "Point", "coordinates": [ -80.850380548771099, 35.217769172241802 ] } },
{ "type": "Feature", "properties": { "OBJECTID": 689, "INT": "1656", "Location": "ARDREY KELL MIDBLOCK PED BEACON", "Status": "installed", "GlobalID": "48b24e2d-ca02-4c9b-99ec-079fbc351041" }, "geometry": { "type": "Point", "coordinates": [ -80.829576126776701, 35.0277217557516 ] } },
{ "type": "Feature", "properties": { "OBJECTID": 690, "INT": "491", "Location": "N SHARON AMITY RD_RANDOLPH RD_S SHARON AMITY RD", "Status": "installed", "GlobalID": "a41737a2-2688-4e29-9e4c-3efb3e3375cc" }, "geometry": { "type": "Point", "coordinates": [ -80.798231824073, 35.1759371236151 ] } },
{ "type": "Feature", "properties": { "OBJECTID": 691, "INT": "625", "Location": "SOUTH BV_TYVOLA RD", "Status": "installed", "GlobalID": "70318455-0f3a-4cd4-9169-93df739f7c0e" }, "geometry": { "type": "Point", "coordinates": [ -80.876139348512396, 35.1649233461454 ] } },
{ "type": "Feature", "properties": { "OBJECTID": 692, "INT": "1622", "Location": "MALLARD POINTE SHOPPING CENTER_N TRYON ST_INSTITUTE CR", "Status": "installed", "GlobalID": "bb7e2161-1e40-4370-8682-f1ac697c3e1a" }, "geometry": { "type": "Point", "coordinates": [ -80.743150167235797, 35.312698615458103 ] } },
{ "type": "Feature", "properties": { "OBJECTID": 693, "INT": "457", "Location": "CENTRAL AV_EASTWAY DR", "Status": "installed", "GlobalID": "681facd2-adad-4a42-b1e3-0ccc10f98be9" }, "geometry": { "type": "Point", "coordinates": [ -80.780725215221494, 35.215612836348903 ] } },
{ "type": "Feature", "properties": { "OBJECTID": 694, "INT": "42", "Location": "E 3RD ST_S BREVARD ST", "Status": "requested", "GlobalID": "3502d895-2cf4-4de1-bcd9-c4a8f65d9fe4" }, "geometry": { "type": "Point", "coordinates": [ -80.842267210119601, 35.223007679733598 ] } },
{ "type": "Feature", "properties": { "OBJECTID": 695, "INT": "552", "Location": "Albemarle_Winterhaven - by Ryan Bondroff DHHS", "Status": "requested", "GlobalID": "820c7e3f-81ca-4044-bb2d-3afbec5da78a" }, "geometry": { "type": "Point", "coordinates": [ -80.734630998577202, 35.202800984360799 ] } },
{ "type": "Feature", "properties": { "OBJECTID": 696, "INT": "602", "Location": "Carson_Tryon (w/in 1/4 mi of LRT station)", "Status": "requested", "GlobalID": "eaa38348-2b4f-4ea5-a02a-93e40e831cfe" }, "geometry": { "type": "Point", "coordinates": [ -80.852577456740093, 35.219599837340603 ] } },
{ "type": "Feature", "properties": { "OBJECTID": 697, "INT": "239", "Location": "EASTWAY DR_THE PLAZA", "Status": "installed", "GlobalID": "b989c6b7-2356-4fc5-a8fa-b4a33c6f99ea" }, "geometry": { "type": "Point", "coordinates": [ -80.781027544391705, 35.249516614729203 ] } },
{ "type": "Feature", "properties": { "OBJECTID": 698, "INT": "413", "Location": "CHARLOTTETOWNE AV_ELIZABETH AV", "Status": "installed", "GlobalID": "8892daea-9ce4-404d-94f0-0a07b41ea6d4" }, "geometry": { "type": "Point", "coordinates": [ -80.828909318482204, 35.215568041237603 ] } },
{ "type": "Feature", "properties": { "OBJECTID": 699, "INT": "1697", "Location": "MCCLINTOCK MIDDLE SCHOOL_RAMA RD PED BEACON MID BLOCK", "Status": "installed", "GlobalID": "beb7464a-6843-4a54-b646-3a4273a23e3c" }, "geometry": { "type": "Point", "coordinates": [ -80.7681850317487, 35.1788343955524 ] } },
{ "type": "Feature", "properties": { "OBJECTID": 700, "INT": "618", "Location": "CLANTON RD_SOUTH BV", "Status": "installed", "GlobalID": "e783fd5e-2457-4a97-8ada-c51aaa683626" }, "geometry": { "type": "Point", "coordinates": [ -80.8728598008462, 35.194272610561001 ] } },
{ "type": "Feature", "properties": { "OBJECTID": 701, "INT": "764", "Location": "ARBOR POINTE DR_PARK RD_SOUTH MECK H S DY", "Status": "installed", "GlobalID": "add2de6a-3372-4ee3-a0b7-d2af30fa04bb" }, "geometry": { "type": "Point", "coordinates": [ -80.858333654856594, 35.107995139412502 ] } },
{ "type": "Feature", "properties": { "OBJECTID": 702, "INT": "46", "Location": "E 3RD ST_S MCDOWELL ST", "Status": "installed", "GlobalID": "0d39f705-c739-4725-a5a9-b77c6468d0dc" }, "geometry": { "type": "Point", "coordinates": [ -80.837346320670306, 35.2187844315891 ] } },
{ "type": "Feature", "properties": { "OBJECTID": 703, "INT": "612", "Location": "EAST BV_SOUTH BV", "Status": "requested", "GlobalID": "f9d57355-264c-404e-8c25-afca651f11e5" }, "geometry": { "type": "Point", "coordinates": [ -80.857707791585398, 35.211750971028302 ] } },
{ "type": "Feature", "properties": { "OBJECTID": 704, "INT": "1561", "Location": "BEVINGTON PL_REA RD", "Status": "installed", "GlobalID": "a80c9cbb-c6be-4438-885a-89daa794fc0b" }, "geometry": { "type": "Point", "coordinates": [ -80.816677367487102, 35.077849453470698 ] } },
{ "type": "Feature", "properties": { "OBJECTID": 705, "INT": "428", "Location": "CENTRAL AV_PECAN AV", "Status": "requested", "GlobalID": "3221afa0-d17f-48fc-95cd-915d9bbfd468" }, "geometry": { "type": "Point", "coordinates": [ -80.8135937132935, 35.220399264343797 ] } },
{ "type": "Feature", "properties": { "OBJECTID": 706, "INT": "420", "Location": "E 7TH ST_HAWTHORNE LN", "Status": "installed", "GlobalID": "000711e1-62d6-4b1f-b105-d36f2d8a28bd" }, "geometry": { "type": "Point", "coordinates": [ -80.822099199709697, 35.215779149876496 ] } },
{ "type": "Feature", "properties": { "OBJECTID": 707, "INT": "627", "Location": "EMERYWOOD DR_SOUTH BV", "Status": "installed", "GlobalID": "8a15e476-0e7c-4361-ac2a-1355c6c18542" }, "geometry": { "type": "Point", "coordinates": [ -80.8762465801221, 35.156775597476098 ] } },
{ "type": "Feature", "properties": { "OBJECTID": 708, "INT": "540", "Location": "Runnymede_Selwyn_Woodlawn", "Status": "requested", "GlobalID": "ec7eb861-c3a5-4069-bebc-8a25086862d2" }, "geometry": { "type": "Point", "coordinates": [ -80.841182347814197, 35.170965681173897 ] } },
{ "type": "Feature", "properties": { "OBJECTID": 709, "INT": "637", "Location": "DILWORTH RD EAST_EAST BV", "Status": "installed", "GlobalID": "0dbf87f4-ca84-4206-9117-04fba9e1a6f3" }, "geometry": { "type": "Point", "coordinates": [ -80.846816156281093, 35.203543240203999 ] } },
{ "type": "Feature", "properties": { "OBJECTID": 710, "INT": "220", "Location": "E 36TH ST_N DAVIDSON ST", "Status": "installed", "GlobalID": "94b632c0-8345-477f-980a-d72fb712b4e8" }, "geometry": { "type": "Point", "coordinates": [ -80.804558846990403, 35.247688107438698 ] } },
{ "type": "Feature", "properties": { "OBJECTID": 711, "INT": "1614", "Location": "SHARON AMITY_PED BEACON (MID BLOCK)", "Status": "installed", "GlobalID": "02a7c2e1-3dd2-4fbc-804c-fb547a6cd859" }, "geometry": { "type": "Point", "coordinates": [ -80.758172920186695, 35.206730884492401 ] } },
{ "type": "Feature", "properties": { "OBJECTID": 712, "INT": "653", "Location": "PARK RD_PARK SELWYN OFFICE DR_SELWYN AV", "Status": "requested", "GlobalID": "4141c6a6-e2b8-4efb-b1a1-deacbb1aaf47" }, "geometry": { "type": "Point", "coordinates": [ -80.848700352546402, 35.1593267148588 ] } },
{ "type": "Feature", "properties": { "OBJECTID": 713, "INT": "510", "Location": "FAIRVIEW RD_PROVIDENCE RD_SARDIS RD", "Status": "installed", "GlobalID": "52d37bd3-c18a-49dd-90e3-2b36f2354df5" }, "geometry": { "type": "Point", "coordinates": [ -80.794970337086099, 35.154442438366203 ] } },
{ "type": "Feature", "properties": { "OBJECTID": 714, "INT": "254", "Location": "CARYA POND LN_HICKORY GROVE RD_SHAMROCK DR", "Status": "installed", "GlobalID": "5b800ab6-285e-441f-b69d-7f22df84bb42" }, "geometry": { "type": "Point", "coordinates": [ -80.745034852979202, 35.223859991330897 ] } },
{ "type": "Feature", "properties": { "OBJECTID": 715, "INT": "1591", "Location": "HIGHLAND CREEK ELEMENTARY_RIDGE ROAD MIDDLE SCHOOL PED BEACON MID BLOCK", "Status": "installed", "GlobalID": "2f389959-0cb8-4c99-a272-fbbd3457c378" }, "geometry": { "type": "Point", "coordinates": [ -80.762548408751599, 35.378925966263097 ] } },
{ "type": "Feature", "properties": { "OBJECTID": 716, "INT": "364", "Location": "CLAUDE FREEMAN RD_W MALLARD CREEK CHURCH RD", "Status": "installed", "GlobalID": "57537786-fc51-41d0-aebd-f30aa90d0c31" }, "geometry": { "type": "Point", "coordinates": [ -80.758186242358605, 35.337307956695099 ] } },
{ "type": "Feature", "properties": { "OBJECTID": 717, "INT": "424", "Location": "E 4TH ST_RANDOLPH RD_S CASWELL RD", "Status": "installed", "GlobalID": "d3c78703-cd19-4ab2-bc0b-bebccbd783e7" }, "geometry": { "type": "Point", "coordinates": [ -80.824607701214902, 35.210785980108703 ] } },
{ "type": "Feature", "properties": { "OBJECTID": 718, "INT": "606", "Location": "S TRYON ST_W PARK AV", "Status": "installed", "GlobalID": "8ed765cd-d649-483b-92d5-48f91c79b88c" }, "geometry": { "type": "Point", "coordinates": [ -80.858307011172698, 35.215327652561001 ] } },
{ "type": "Feature", "properties": { "OBJECTID": 719, "INT": "621", "Location": "E WOODLAWN RD_SOUTH BV", "Status": "installed", "GlobalID": "eb1b10d2-3683-4e48-aba3-1506dff5b68f" }, "geometry": { "type": "Point", "coordinates": [ -80.875876355485204, 35.176483538356599 ] } },
{ "type": "Feature", "properties": { "OBJECTID": 720, "INT": "1620", "Location": "PARK RD_ PED BEACON (YWCA)", "Status": "installed", "GlobalID": "743085ea-fc14-416e-8752-d653d162f45d" }, "geometry": { "type": "Point", "coordinates": [ -80.852483703805802, 35.183701206361803 ] } },
{ "type": "Feature", "properties": { "OBJECTID": 721, "INT": "467", "Location": "Albemarle_WT Harris - by Ryan Bondroff DHHS", "Status": "requested", "GlobalID": "b958cebc-e78c-4d1a-9295-b9a2bb1d82b0" }, "geometry": { "type": "Point", "coordinates": [ -80.725974494626897, 35.202498200511897 ] } },
{ "type": "Feature", "properties": { "OBJECTID": 722, "INT": "790", "Location": "BRANDON FOREST DR_SHARON RD WEST", "Status": "installed", "GlobalID": "ff61cef5-19e6-47a6-b9ba-9b5a8e0c080c" }, "geometry": { "type": "Point", "coordinates": [ -80.859448223338902, 35.117375440355403 ] } },
{ "type": "Feature", "properties": { "OBJECTID": 723, "INT": "767", "Location": "CAROLINA PAVILION DR S_SOUTH BV", "Status": "installed", "GlobalID": "1d43f115-3090-4495-890e-a22aa50f8c06" }, "geometry": { "type": "Point", "coordinates": [ -80.880810765247006, 35.105076582254398 ] } },
{ "type": "Feature", "properties": { "OBJECTID": 724, "INT": "617", "Location": "MARSH RD_NEW BERN ST_SOUTH BV", "Status": "installed", "GlobalID": "02e5faa3-d02c-4569-98e0-981898f0dc86" }, "geometry": { "type": "Point", "coordinates": [ -80.867820371365198, 35.1988980092923 ] } },
{ "type": "Feature", "properties": { "OBJECTID": 725, "INT": "466", "Location": "Albemarle_Farm Pond - by Ryan Bondroff DHHS", "Status": "requested", "GlobalID": "93444f0b-16dc-480e-bd35-b8c4940ff934" }, "geometry": { "type": "Point", "coordinates": [ -80.738747971763502, 35.202993540545599 ] } },
{ "type": "Feature", "properties": { "OBJECTID": 726, "INT": "1500", "Location": "INTERNATIONAL DR_PROVIDENCE RD - south leg", "Status": "requested", "GlobalID": "85302fe3-d303-4329-9ee5-14d2bece47db" }, "geometry": { "type": "Point", "coordinates": [ -80.782333010836197, 35.134595258561298 ] } },
{ "type": "Feature", "properties": { "OBJECTID": 727, "INT": "829", "Location": "BEATTIES FORD RD_CINDY LN_GRIERS GROVE RD", "Status": "installed", "GlobalID": "47e826dd-5ad0-4bdb-ba00-df1f43e8c8ce" }, "geometry": { "type": "Point", "coordinates": [ -80.857332954214698, 35.282842201014297 ] } },
{ "type": "Feature", "properties": { "OBJECTID": 728, "INT": "422", "Location": "CENTRAL AV_HAWTHORNE LN", "Status": "requested", "GlobalID": "c8c57248-a00a-4d90-9ca3-bdadb30fb587" }, "geometry": { "type": "Point", "coordinates": [ -80.818522265865198, 35.221317571057803 ] } },
{ "type": "Feature", "properties": { "OBJECTID": 729, "INT": "1503", "Location": "COLONY RD_FAIRVIEW RD - Deborah Chandler (980-297-3774) - due July 1, 2014", "Status": "installed", "GlobalID": "0c8283ea-d1ca-4be9-ae98-50e9a201575c" }, "geometry": { "type": "Point", "coordinates": [ -80.819225182966093, 35.146730503473002 ] } },
{ "type": "Feature", "properties": { "OBJECTID": 730, "INT": "641", "Location": "IDEAL WY_PARK RD", "Status": "installed", "GlobalID": "428ad395-68ee-4f1a-8e03-ec5cf6440eb5" }, "geometry": { "type": "Point", "coordinates": [ -80.852199020610698, 35.200613365038599 ] } },
{ "type": "Feature", "properties": { "OBJECTID": 731, "INT": "1610", "Location": "CATS PARK-N-RIDE_OLD PINEVILLE RD", "Status": "installed", "GlobalID": "08d59acc-3d35-441f-aeac-b9a9399188b5" }, "geometry": { "type": "Point", "coordinates": [ -80.879350192584994, 35.176137131232601 ] } },
{ "type": "Feature", "properties": { "OBJECTID": 732, "INT": "1413", "Location": "Monroe & East Meck HS", "Status": "installed", "GlobalID": "48ed1172-fba1-4e4e-8e8c-06679055f572" }, "geometry": { "type": "Point", "coordinates": [ -80.756897801645493, 35.174152652820098 ] } },
{ "type": "Feature", "properties": { "OBJECTID": 733, "INT": "632", "Location": "E ARROWOOD RD_SOUTH BV_STARBROOK DR", "Status": "installed", "GlobalID": "74c71e28-3681-458c-8e3e-3b763ba58113" }, "geometry": { "type": "Point", "coordinates": [ -80.876334977523499, 35.137718721198702 ] } },
{ "type": "Feature", "properties": { "OBJECTID": 734, "INT": "638", "Location": "EAST BV_KENILWORTH AV", "Status": "installed", "GlobalID": "9cc0eeab-4cac-49f2-83cc-923ba950ce1a" }, "geometry": { "type": "Point", "coordinates": [ -80.844763828309794, 35.202008117469703 ] } },
{ "type": "Feature", "properties": { "OBJECTID": 735, "INT": "421", "Location": "RAMA ROAD ELEMENTARY SCHOOL PED BEACON MID BLOCK", "Status": "requested", "GlobalID": "a91b0932-65fb-4ff1-a238-bd166cca3961" }, "geometry": { "type": "Point", "coordinates": [ -80.771277814834207, 35.1689680477145 ] } },
{ "type": "Feature", "properties": { "OBJECTID": 736, "INT": "613", "Location": "E TREMONT AV_SOUTH BV", "Status": "installed", "GlobalID": "bc4c8c0a-a7a8-4a5d-9edc-57b441ceca08" }, "geometry": { "type": "Point", "coordinates": [ -80.859831123760699, 35.209774245878798 ] } },
{ "type": "Feature", "properties": { "OBJECTID": 737, "INT": "1564", "Location": "KUYKENDALL RD_PROVIDENCE RD", "Status": "installed", "GlobalID": "25c8962a-2116-4f0d-824a-5b7dd0c5c587" }, "geometry": { "type": "Point", "coordinates": [ -80.772138418153006, 35.079349214724203 ] } },
{ "type": "Feature", "properties": { "OBJECTID": 738, "INT": "456", "Location": "BRIAR CREEK RD_CENTRAL AV", "Status": "installed", "GlobalID": "445826f9-5b24-4079-9ca8-e4cdb0e10e98" }, "geometry": { "type": "Point", "coordinates": [ -80.788803171247906, 35.216573190784402 ] } }
]
}
