{
"type": "FeatureCollection",
"name": "CATS_Park_and_Ride_Lots",
"crs": { "type": "name", "properties": { "name": "urn:ogc:def:crs:OGC:1.3:CRS84" } },
"features": [
{ "type": "Feature", "properties": { "GlobalID": "d4de8e63-3f80-4d72-bb08-d251d95e9a68", "OBJECTID": 123, "Name": "Central Steele Creek Presbyterian Church", "Street": "9401 South Tryon Street", "City": "Charlotte", "State": "NC", "Spaces": 10, "StopID": 46168, "Status": "No Cost", "Lat": 35.131098, "Long": -80.941009, "Type": "Bus" }, "geometry": { "type": "Point", "coordinates": [ -80.940815614017396, 35.130596891420502 ] } },
{ "type": "Feature", "properties": { "GlobalID": "6bd548c2-0f77-4fc7-b711-e1f42f2d528b", "OBJECTID": 124, "Name": "Tyvola Station Park and Ride", "Street": "5703 Old Pineville Rd", "City": "Charlotte", "State": "NC", "Spaces": 465, "StopID": 11, "Status": "CATS Owned", "Lat": 35.163017, "Long": -80.877519, "Type": "Rail" }, "geometry": { "type": "Point", "coordinates": [ -80.877518999549594, 35.163016999607102 ] } },
{ "type": "Feature", "properties": { "GlobalID": "4e529cca-5633-406f-90af-db304e11a3af", "OBJECTID": 125, "Name": "St. John Neumann Catholic Church", "Street": "8451 Idlewild Road", "City": "Charlotte", "State": "NC", "Spaces": 20, "StopID": 45867, "Status": "No Cost", "Lat": 35.18016, "Long": -80.724858, "Type": "Bus" }, "geometry": { "type": "Point", "coordinates": [ -80.7245275018265, 35.180183103631201 ] } },
{ "type": "Feature", "properties": { "GlobalID": "c92e2da5-492a-4ba2-ad12-13ece3b50d29", "OBJECTID": 126, "Name": "Conference Dr & US-74", "Street": "To Be Determined", "City": "Charlotte", "State": "NC", "Spaces": 0, "StopID": 0, "Status": "Proposed", "Lat": 35.18288, "Long": -80.754167, "Type": "Bus" }, "geometry": { "type": "Point", "coordinates": [ -80.754166873036795, 35.182880007427002 ] } },
{ "type": "Feature", "properties": { "GlobalID": "c31dcc50-b868-4be9-8b19-465b9dc3c63d", "OBJECTID": 127, "Name": "Sharon Baptist Church", "Street": "6411 Sharon Road", "City": "Charlotte", "State": "NC", "Spaces": 20, "StopID": 29000, "Status": "No Cost", "Lat": 35.12785, "Long": -80.846177, "Type": "Bus" }, "geometry": { "type": "Point", "coordinates": [ -80.846085193881706, 35.127428942267699 ] } },
{ "type": "Feature", "properties": { "GlobalID": "0e8db579-490e-4b54-a305-e6cdd4c08285", "OBJECTID": 128, "Name": "Sugar Creek Station Park and Ride", "Street": "700 E Sugar Creek Rd", "City": "Charlotte", "State": "NC", "Spaces": 630, "StopID": 84, "Status": "CATS Owned", "Lat": 35.25142, "Long": -80.79285, "Type": "Rail" }, "geometry": { "type": "Point", "coordinates": [ -80.792849999252397, 35.251419998918401 ] } },
{ "type": "Feature", "properties": { "GlobalID": "123ccb1c-027b-463a-ac2e-95b2813a19e7", "OBJECTID": 129, "Name": "Abbey Plaza Shopping Center", "Street": "601 Park Street", "City": "Belmont", "State": "NC", "Spaces": 40, "StopID": 39740, "Status": "No Cost", "Lat": 35.252623, "Long": -81.02918, "Type": "Bus" }, "geometry": { "type": "Point", "coordinates": [ -81.029179999408498, 35.2526229989219 ] } },
{ "type": "Feature", "properties": { "GlobalID": "effcdb4a-4d4b-4ef8-9957-b13b39b539c7", "OBJECTID": 130, "Name": "Cornerstone Baptist Church", "Street": "8947 Albemarle Road", "City": "Charlotte", "State": "NC", "Spaces": 20, "StopID": 38370, "Status": "No Cost", "Lat": 35.211628, "Long": -80.692366, "Type": "Bus" }, "geometry": { "type": "Point", "coordinates": [ -80.692642500381396, 35.212077930225902 ] } },
{ "type": "Feature", "properties": { "GlobalID": "c91e8013-52e2-496a-ae6f-3256b9cc64de", "OBJECTID": 131, "Name": "Calvary Church", "Street": "5801 Pineville-Matthews Road", "City": "Charlotte", "State": "NC", "Spaces": 25, "StopID": 24320, "Status": "No Cost", "Lat": 35.08193, "Long": -80.81347, "Type": "Bus" }, "geometry": { "type": "Point", "coordinates": [ -80.814260031459995, 35.0825339833901 ] } },
{ "type": "Feature", "properties": { "GlobalID": "42f784c7-bffd-4c7c-b66e-cf092a5b9fc1", "OBJECTID": 132, "Name": "City Save-a-Lot #2", "Street": "Providence Road @ Old Sardis Road", "City": "Charlotte", "State": "NC", "Spaces": 58, "StopID": 22660, "Status": "No Cost", "Lat": 35.155385, "Long": -80.79559, "Type": "Bus" }, "geometry": { "type": "Point", "coordinates": [ -80.794737833492306, 35.155531600071399 ] } },
{ "type": "Feature", "properties": { "GlobalID": "0897f900-39ae-41e4-a03a-d56bfbed6e23", "OBJECTID": 133, "Name": "Cornelius Town Hall", "Street": "21445 Catawba Avenue", "City": "Cornelius", "State": "NC", "Spaces": 20, "StopID": 40220, "Status": "No Cost", "Lat": 35.482612, "Long": -80.858274, "Type": "Bus" }, "geometry": { "type": "Point", "coordinates": [ -80.858921705961095, 35.481877365354201 ] } },
{ "type": "Feature", "properties": { "GlobalID": "4edc0c45-8eac-44b1-be66-0d0ef8cc2e9a", "OBJECTID": 134, "Name": "Hambright & I-77", "Street": "To Be Determined", "City": "Huntersville", "State": "NC", "Spaces": 0, "StopID": 0, "Status": "Proposed", "Lat": 35.376992, "Long": -80.846757, "Type": "Bus" }, "geometry": { "type": "Point", "coordinates": [ -80.851463419306796, 35.376045550815697 ] } },
{ "type": "Feature", "properties": { "GlobalID": "f6c7199c-b768-4e40-8cec-1dd7037540a6", "OBJECTID": 135, "Name": "Davidson Gateway Dr Park & Ride", "Street": "630 Davidson Gateway Dr, Davidson, NC, 28036", "City": "Davidson", "State": "NC", "Spaces": 0, "StopID": 46497, "Status": "On Street", "Lat": 35.501515, "Long": -80.864522, "Type": "Bus" }, "geometry": { "type": "Point", "coordinates": [ -80.864522324458704, 35.501514523719102 ] } },
{ "type": "Feature", "properties": { "GlobalID": "76feea3c-833a-41c1-9e2a-e13d8c1ff44e", "OBJECTID": 136, "Name": "Providence Baptist Church", "Street": "4921 Randolph Road", "City": "Charlotte", "State": "NC", "Spaces": 20, "StopID": 24110, "Status": "No Cost", "Lat": 35.168418, "Long": -80.795225, "Type": "Bus" }, "geometry": { "type": "Point", "coordinates": [ -80.794975833272801, 35.168469003574103 ] } },
{ "type": "Feature", "properties": { "GlobalID": "21394ef1-03fc-4ef0-97d8-dc0e40591bf0", "OBJECTID": 137, "Name": "Downtown Rock Hill", "Street": "138 E White St", "City": "Rock Hill", "State": "SC", "Spaces": 40, "StopID": 40775, "Status": "No Cost", "Lat": 34.927042, "Long": -81.026933, "Type": "Bus" }, "geometry": { "type": "Point", "coordinates": [ -81.026933000938996, 34.927041999414698 ] } },
{ "type": "Feature", "properties": { "GlobalID": "c17de6fc-43d9-4fb8-8b64-64407b9fc1ab", "OBJECTID": 138, "Name": "Trinity Presbyterian Church", "Street": "3115 Providence Road", "City": "Charlotte", "State": "NC", "Spaces": 25, "StopID": 22560, "Status": "No Cost", "Lat": 35.168123, "Long": -80.804446, "Type": "Bus" }, "geometry": { "type": "Point", "coordinates": [ -80.803610647639701, 35.168082010748499 ] } },
{ "type": "Feature", "properties": { "GlobalID": "51e9ed47-3d72-49d2-ba93-4e2d9ba29c8b", "OBJECTID": 139, "Name": "University City Blvd Station Park and Ride", "Street": "7201 N Tryon St", "City": "Charlotte", "State": "NC", "Spaces": 1514, "StopID": 87, "Status": "CATS Owned", "Lat": 35.286779, "Long": -80.760864, "Type": "Rail" }, "geometry": { "type": "Point", "coordinates": [ -80.760864000153902, 35.2867789991408 ] } },
{ "type": "Feature", "properties": { "GlobalID": "5b3144ca-bf7e-4a17-8ea9-64c86a4b36c7", "OBJECTID": 140, "Name": "Manchester Theater", "Street": "1935 Cinema Drive", "City": "Rock Hill", "State": "SC", "Spaces": 50, "StopID": 40770, "Status": "No Cost", "Lat": 34.944455, "Long": -80.977418, "Type": "Bus" }, "geometry": { "type": "Point", "coordinates": [ -80.978282531837195, 34.944388882722798 ] } },
{ "type": "Feature", "properties": { "GlobalID": "100bdc33-9dc6-4043-8695-02a76e98feb3", "OBJECTID": 141, "Name": "Carowinds Park and Ride", "Street": "3660 Cabelas Drive", "City": "Fort Mill", "State": "SC", "Spaces": 10, "StopID": 52494, "Status": "On Street", "Lat": 35.09685, "Long": -80.934808, "Type": "Bus" }, "geometry": { "type": "Point", "coordinates": [ -80.934807999422901, 35.096849999121702 ] } },
{ "type": "Feature", "properties": { "GlobalID": "ad819cfc-69e9-4e73-80bb-2f88d86cce4e", "OBJECTID": 142, "Name": "Mason-Wallace Park", "Street": "7300 Monroe Road", "City": "Charlotte", "State": "NC", "Spaces": 20, "StopID": 16310, "Status": "No Cost", "Lat": 35.168219, "Long": -80.755757, "Type": "Bus" }, "geometry": { "type": "Point", "coordinates": [ -80.755370299826694, 35.168260895313097 ] } },
{ "type": "Feature", "properties": { "GlobalID": "45ff7b50-0a4f-47e0-b661-5758bdf52a7b", "OBJECTID": 143, "Name": "Brookshire Blvd & Mt Holly-Huntersville Rd", "Street": "4009 Corning Pl", "City": "Charlotte", "State": "NC", "Spaces": 0, "StopID": 0, "Status": "No Cost", "Lat": 35.330046, "Long": -80.944485, "Type": "Bus" }, "geometry": { "type": "Point", "coordinates": [ -80.941455716671499, 35.328597541509303 ] } },
{ "type": "Feature", "properties": { "GlobalID": "ece81902-0cb1-41ba-8ce8-c107be170af9", "OBJECTID": 144, "Name": "JW Clay Station Park and RIde", "Street": "9101 N Tryon St", "City": "Charlotte", "State": "NC", "Spaces": 803, "StopID": 89, "Status": "CATS Owned", "Lat": 35.310736, "Long": -80.745185, "Type": "Rail" }, "geometry": { "type": "Point", "coordinates": [ -80.745185000748407, 35.3107359985054 ] } },
{ "type": "Feature", "properties": { "GlobalID": "5d03ee45-5ac2-4714-8616-4dd8124c94b1", "OBJECTID": 145, "Name": "Steele Creek", "Street": "To Be Determined", "City": "Charlotte", "State": "NC", "Spaces": 0, "StopID": 0, "Status": "Proposed", "Lat": 35.132841, "Long": -81.008692, "Type": "Bus" }, "geometry": { "type": "Point", "coordinates": [ -81.008691618943104, 35.1328413327169 ] } },
{ "type": "Feature", "properties": { "GlobalID": "a9f905d3-cd06-4154-a069-95c1c9c4f194", "OBJECTID": 146, "Name": "Ridge Road Park and Ride", "Street": "Ridge Road", "City": "Charlotte", "State": "NC", "Spaces": 78, "StopID": 49950, "Status": "On Street", "Lat": 35.372688, "Long": -80.786518, "Type": "Bus" }, "geometry": { "type": "Point", "coordinates": [ -80.786543167589102, 35.372815817731301 ] } },
{ "type": "Feature", "properties": { "GlobalID": "ec5ee77d-a83f-48f3-b33e-b2cc392a8833", "OBJECTID": 147, "Name": "Gastonia Transit Center", "Street": "121 North Oakland Street", "City": "Gastonia", "State": "NC", "Spaces": 20, "StopID": 38640, "Status": "No Cost", "Lat": 35.264635, "Long": -81.179882, "Type": "Bus" }, "geometry": { "type": "Point", "coordinates": [ -81.179881999076599, 35.264634998516598 ] } },
{ "type": "Feature", "properties": { "GlobalID": "fe28ce43-863c-4f4d-986e-6789386dc4ea", "OBJECTID": 148, "Name": "Mallard Creek", "Street": "1712 J N Pease Place", "City": "Charlotte", "State": "NC", "Spaces": 210, "StopID": 45354, "Status": "CATS Owned", "Lat": 35.323841, "Long": -80.772757, "Type": "Bus" }, "geometry": { "type": "Point", "coordinates": [ -80.772757000159103, 35.323840999067897 ] } },
{ "type": "Feature", "properties": { "GlobalID": "21182c7e-e075-469c-ab70-f630e42e7b89", "OBJECTID": 149, "Name": "Matthews Presbyterian", "Street": "207 West John Street", "City": "Matthews", "State": "NC", "Spaces": 50, "StopID": 7650, "Status": "No Cost", "Lat": 35.117143, "Long": -80.724167, "Type": "Bus" }, "geometry": { "type": "Point", "coordinates": [ -80.724893819352999, 35.116984454791101 ] } },
{ "type": "Feature", "properties": { "GlobalID": "52d74d97-74f4-4c02-8b45-82077d63cec8", "OBJECTID": 150, "Name": "Carmel Road Park", "Street": "2350 Carmel Road", "City": "Charlotte", "State": "NC", "Spaces": 20, "StopID": 4570, "Status": "No Cost", "Lat": 35.133302, "Long": -80.807752, "Type": "Bus" }, "geometry": { "type": "Point", "coordinates": [ -80.808269132268094, 35.1334923611496 ] } },
{ "type": "Feature", "properties": { "GlobalID": "f1f23c3f-95ac-4e66-a68c-927f926e6bad", "OBJECTID": 151, "Name": "Providence Methodist Church", "Street": "2810 Providence Road", "City": "Charlotte", "State": "NC", "Spaces": 20, "StopID": 22520, "Status": "No Cost", "Lat": 35.172156, "Long": -80.809485, "Type": "Bus" }, "geometry": { "type": "Point", "coordinates": [ -80.809819454759307, 35.171885593190197 ] } },
{ "type": "Feature", "properties": { "GlobalID": "74269a1b-b7fb-4856-9c80-04c8d519a91f", "OBJECTID": 152, "Name": "Cambridge Commons", "Street": "8030 Cambridge Commons Cr", "City": "Charlotte", "State": "NC", "Spaces": 29, "StopID": 49370, "Status": "Leased", "Lat": 35.252857, "Long": -80.657994, "Type": "Bus" }, "geometry": { "type": "Point", "coordinates": [ -80.657994000849399, 35.252856999922898 ] } },
{ "type": "Feature", "properties": { "GlobalID": "e302aaf1-25ec-4772-aa57-34e35a5bdd69", "OBJECTID": 153, "Name": "Huntersville Gateway", "Street": "14500 Statesville Road", "City": "Huntersville", "State": "NC", "Spaces": 209, "StopID": 11015, "Status": "CATS Owned", "Lat": 35.413574, "Long": -80.857056, "Type": "Bus" }, "geometry": { "type": "Point", "coordinates": [ -80.857056000121602, 35.413573999663299 ] } },
{ "type": "Feature", "properties": { "GlobalID": "c6b2b574-f13b-4f92-b927-a93e5f4016d8", "OBJECTID": 154, "Name": "Scaleybark Station Park and RIde", "Street": "3750 South Bv", "City": "Charlotte", "State": "NC", "Spaces": 315, "StopID": 9, "Status": "CATS Owned", "Lat": 35.19088, "Long": -80.874979, "Type": "Rail" }, "geometry": { "type": "Point", "coordinates": [ -80.874979000710695, 35.1908799986616 ] } },
{ "type": "Feature", "properties": { "GlobalID": "f72fa5a3-4301-40ce-bbbb-c635205a96e6", "OBJECTID": 155, "Name": "Albermarle Rd", "Street": "6810 Lawyers Rd", "City": "Charlotte", "State": "NC", "Spaces": 231, "StopID": 285, "Status": "CATS Owned", "Lat": 35.203899, "Long": -80.724254, "Type": "Bus" }, "geometry": { "type": "Point", "coordinates": [ -80.724253999995895, 35.203898999357797 ] } },
{ "type": "Feature", "properties": { "GlobalID": "e6512fa4-f3b1-412e-8509-7ed4edbbc6cb", "OBJECTID": 156, "Name": "Huntersville Northcross", "Street": "17126 Northcross Drive", "City": "Huntersville", "State": "NC", "Spaces": 326, "StopID": 45363, "Status": "CATS Owned", "Lat": 35.448329, "Long": -80.87157, "Type": "Bus" }, "geometry": { "type": "Point", "coordinates": [ -80.871569999986306, 35.448328999458397 ] } },
{ "type": "Feature", "properties": { "GlobalID": "3252f436-fe78-416a-a835-e2a5fa53630e", "OBJECTID": 157, "Name": "River District", "Street": "To Be Determined", "City": "Charlotte", "State": "NC", "Spaces": 0, "StopID": 0, "Status": "Proposed", "Lat": 35.229777, "Long": -80.998247, "Type": "Bus" }, "geometry": { "type": "Point", "coordinates": [ -80.9982467478102, 35.229777110171703 ] } },
{ "type": "Feature", "properties": { "GlobalID": "3ab963ba-396b-452b-8225-dc0755dcda79", "OBJECTID": 158, "Name": "Cokesbury United Methodist", "Street": "6701 Idlewild Road", "City": "Charlotte", "State": "NC", "Spaces": 40, "StopID": 12640, "Status": "No Cost", "Lat": 35.184792, "Long": -80.748939, "Type": "Bus" }, "geometry": { "type": "Point", "coordinates": [ -80.748876154762002, 35.185191625055197 ] } },
{ "type": "Feature", "properties": { "GlobalID": "dfbf5c26-c321-480a-9563-4d3426caf634", "OBJECTID": 159, "Name": "Providence Presbyterian Church", "Street": "10140 Providence Rd", "City": "Charlotte", "State": "NC", "Spaces": 60, "StopID": 45327, "Status": "No Cost", "Lat": 35.070289, "Long": -80.773262, "Type": "Bus" }, "geometry": { "type": "Point", "coordinates": [ -80.772303942957706, 35.071122324478601 ] } },
{ "type": "Feature", "properties": { "GlobalID": "eedf0129-0f4e-41b0-8d24-fcba29ea2bb8", "OBJECTID": 160, "Name": "Whitehall Commons", "Street": "8031 South Tryon Street", "City": "Charlotte", "State": "NC", "Spaces": 30, "StopID": 42365, "Status": "No Cost", "Lat": 35.14431, "Long": -80.931237, "Type": "Bus" }, "geometry": { "type": "Point", "coordinates": [ -80.932224490172104, 35.1447073790536 ] } },
{ "type": "Feature", "properties": { "GlobalID": "abeb6bf7-2ab0-430d-905c-162b434e4a1c", "OBJECTID": 161, "Name": "Coulwood Shopping Center", "Street": "8410 Bellhaven Road", "City": "Charlotte", "State": "NC", "Spaces": 20, "StopID": 45081, "Status": "Leased", "Lat": 35.304004, "Long": -80.935987, "Type": "Bus" }, "geometry": { "type": "Point", "coordinates": [ -80.936193386966394, 35.304288997973799 ] } },
{ "type": "Feature", "properties": { "GlobalID": "10b7033e-2411-4423-bd2a-ef605df2eaad", "OBJECTID": 162, "Name": "Northlake Mall", "Street": "6801 Northlake Mall Drive", "City": "Charlotte", "State": "NC", "Spaces": 200, "StopID": 45815, "Status": "Leased", "Lat": 35.352828, "Long": -80.855189, "Type": "Bus" }, "geometry": { "type": "Point", "coordinates": [ -80.855188999592798, 35.352827998585703 ] } },
{ "type": "Feature", "properties": { "GlobalID": "58fdb302-dcb5-4d88-97ff-ce58bdd7950f", "OBJECTID": 163, "Name": "Matthews Independence Pointe Parkway", "Street": "9614 Independence Pointe Parkway", "City": "Matthews", "State": "NC", "Spaces": 304, "StopID": 42355, "Status": "CATS Owned", "Lat": 35.134311, "Long": -80.715534, "Type": "Bus" }, "geometry": { "type": "Point", "coordinates": [ -80.7155518812542, 35.134269670304 ] } },
{ "type": "Feature", "properties": { "GlobalID": "22ef8752-5ac5-4dda-82d7-69248e6dc231", "OBJECTID": 164, "Name": "St. Matthew Catholic Church", "Street": "8015 Ballantyne Commons Parkway", "City": "Charlotte", "State": "NC", "Spaces": 75, "StopID": 45601, "Status": "Leased", "Lat": 35.0566, "Long": -80.81257, "Type": "Bus" }, "geometry": { "type": "Point", "coordinates": [ -80.812823701209993, 35.056617018950497 ] } },
{ "type": "Feature", "properties": { "GlobalID": "7054e2e1-af84-44c0-a51e-85906ef43467", "OBJECTID": 165, "Name": "Arboretum Shopping Center", "Street": "Providence Road & NC 51", "City": "Charlotte", "State": "NC", "Spaces": 50, "StopID": 23032, "Status": "No Cost", "Lat": 35.099187, "Long": -80.780626, "Type": "Bus" }, "geometry": { "type": "Point", "coordinates": [ -80.780625999673305, 35.099186998771401 ] } },
{ "type": "Feature", "properties": { "GlobalID": "aa5f4417-498e-46e7-b1f1-d22012f90ea1", "OBJECTID": 166, "Name": "Old Concord Rd Station Park and Ride", "Street": "5600 Old Concord Rd", "City": "Charlotte", "State": "NC", "Spaces": 330, "StopID": 85, "Status": "CATS Owned", "Lat": 35.259935, "Long": -80.772786, "Type": "Rail" }, "geometry": { "type": "Point", "coordinates": [ -80.772786000508106, 35.259934998738103 ] } },
{ "type": "Feature", "properties": { "GlobalID": "8394629b-7cf0-4ef7-87fd-84b6bef86835", "OBJECTID": 167, "Name": "Carolina Place Mall", "Street": "11001 Carolina Place Parkway", "City": "Pineville", "State": "NC", "Spaces": 50, "StopID": 37050, "Status": "Leased", "Lat": 35.079776, "Long": -80.877773, "Type": "Bus" }, "geometry": { "type": "Point", "coordinates": [ -80.877458211943406, 35.079836589659102 ] } },
{ "type": "Feature", "properties": { "GlobalID": "5e430348-f0cb-4964-9e7b-9b612c85d788", "OBJECTID": 168, "Name": "Good Shepard Presbyterian Church", "Street": "3307 Rea Road", "City": "Charlotte", "State": "NC", "Spaces": 20, "StopID": 24230, "Status": "No Cost", "Lat": 35.110606, "Long": -80.791872, "Type": "Bus" }, "geometry": { "type": "Point", "coordinates": [ -80.791880970340401, 35.110602298535703 ] } },
{ "type": "Feature", "properties": { "GlobalID": "663718eb-d10b-4f3b-a2dc-fe9f32535938", "OBJECTID": 169, "Name": "Union Towne Center", "Street": "221 West Highway 74", "City": "Wingate", "State": "NC", "Spaces": 50, "StopID": 44280, "Status": "Leased", "Lat": 35.067414, "Long": -80.639315, "Type": "Bus" }, "geometry": { "type": "Point", "coordinates": [ -80.639315000583693, 35.067413998332803 ] } },
{ "type": "Feature", "properties": { "GlobalID": "3c0a1f18-73ce-4c8a-9dd1-1dc9193ec6ee", "OBJECTID": 170, "Name": "Cooks Memorial Presbyterian Church", "Street": "3413 Mt Holly-Huntersville Rd", "City": "Charlotte", "State": "NC", "Spaces": 25, "StopID": 46505, "Status": "No Cost", "Lat": 35.324079, "Long": -80.947575, "Type": "Bus" }, "geometry": { "type": "Point", "coordinates": [ -80.947522357869502, 35.324469327562603 ] } },
{ "type": "Feature", "properties": { "GlobalID": "53425f85-1504-4af4-996b-39aac8887e5c", "OBJECTID": 171, "Name": "Catawba Avenue", "Street": "19710 S Ferry St", "City": "Cornelius", "State": "NC", "Spaces": 35, "StopID": 4935, "Status": "No Cost", "Lat": 35.484078, "Long": -80.869828, "Type": "Bus" }, "geometry": { "type": "Point", "coordinates": [ -80.869308017961004, 35.483359201346097 ] } },
{ "type": "Feature", "properties": { "GlobalID": "e8436686-faec-46d0-8e3d-76e49e58bf83", "OBJECTID": 172, "Name": "Arrowood Station Park and Ride", "Street": "7717 England St", "City": "Charlotte", "State": "NC", "Spaces": 298, "StopID": 13, "Status": "CATS Owned", "Lat": 35.135639, "Long": -80.876389, "Type": "Rail" }, "geometry": { "type": "Point", "coordinates": [ -80.876389000573894, 35.135638999299097 ] } },
{ "type": "Feature", "properties": { "GlobalID": "a5f42aac-65ee-4ceb-bb16-239c4ce60b22", "OBJECTID": 173, "Name": "Ballantyne", "Street": "To Be Determined", "City": "Charlotte", "State": "NC", "Spaces": 0, "StopID": 0, "Status": "Proposed", "Lat": 35.044642, "Long": -80.84324, "Type": "Bus" }, "geometry": { "type": "Point", "coordinates": [ -80.843239901406605, 35.044641952085101 ] } },
{ "type": "Feature", "properties": { "GlobalID": "6c04614b-90c6-422b-b664-0da0ab15c676", "OBJECTID": 174, "Name": "Archdale Station Park and Ride", "Street": "6230 South Bv", "City": "Charlotte", "State": "NC", "Spaces": 432, "StopID": 12, "Status": "CATS Owned", "Lat": 35.152897, "Long": -80.877537, "Type": "Rail" }, "geometry": { "type": "Point", "coordinates": [ -80.877537000118394, 35.152896998329503 ] } },
{ "type": "Feature", "properties": { "GlobalID": "80c121ad-96fb-4c51-a5a2-74a7dab06284", "OBJECTID": 175, "Name": "Sharon Road West Station Park and Ride", "Street": "8815 Crump Rd", "City": "Charlotte", "State": "NC", "Spaces": 188, "StopID": 14, "Status": "CATS Owned", "Lat": 35.119452, "Long": -80.882072, "Type": "Rail" }, "geometry": { "type": "Point", "coordinates": [ -80.882071999417903, 35.1194519991612 ] } },
{ "type": "Feature", "properties": { "GlobalID": "5ea6f5e3-51b5-4eb3-b61c-40c512f1aab1", "OBJECTID": 176, "Name": "Walker Branch Park and Ride", "Street": "12910 Walker Branch Rd", "City": "Charlotte", "State": "NC", "Spaces": 25, "StopID": 52251, "Status": "No Cost", "Lat": 35.09886, "Long": -80.986832, "Type": "Bus" }, "geometry": { "type": "Point", "coordinates": [ -80.986759637090799, 35.099119885643098 ] } },
{ "type": "Feature", "properties": { "GlobalID": "77309098-818a-4326-b2f7-9897f9abc93d", "OBJECTID": 177, "Name": "Cornelius Park & Ride", "Street": "20208 Sefton Park Rd", "City": "Cornelius", "State": "NC", "Spaces": 355, "StopID": 59500, "Status": "CATS Owned", "Lat": 35.480166, "Long": -80.882655, "Type": "Bus" }, "geometry": { "type": "Point", "coordinates": [ -80.882655000938499, 35.4801659983927 ] } },
{ "type": "Feature", "properties": { "GlobalID": "0f750854-e5fe-4b09-98fd-66ca14269887", "OBJECTID": 178, "Name": "K-Mart Monroe", "Street": "5850 East Highway 74", "City": "Indian Trail", "State": "NC", "Spaces": 50, "StopID": 44275, "Status": "No Cost", "Lat": 35.00833, "Long": -80.559581, "Type": "Bus" }, "geometry": { "type": "Point", "coordinates": [ -80.559581000294202, 35.008329999052499 ] } },
{ "type": "Feature", "properties": { "GlobalID": "a712dc5d-5a5e-4e76-9ea6-1b269c3e8405", "OBJECTID": 179, "Name": "Woodlawn Station Park and Ride", "Street": "4756 Old Pineville Rd", "City": "Charlotte", "State": "NC", "Spaces": 382, "StopID": 10, "Status": "CATS Owned", "Lat": 35.175797, "Long": -80.879116, "Type": "Rail" }, "geometry": { "type": "Point", "coordinates": [ -80.879116000793502, 35.175796999889698 ] } },
{ "type": "Feature", "properties": { "GlobalID": "6fd95f3f-1de4-4825-b9a7-49977a25eb7f", "OBJECTID": 180, "Name": "Waverly Park and Ride", "Street": "11535 Waverly Center Dr", "City": "Charlotte", "State": "NC", "Spaces": 0, "StopID": 60388, "Status": "No Cost", "Lat": 35.062218, "Long": -80.768385, "Type": "Bus" }, "geometry": { "type": "Point", "coordinates": [ -80.767819999286601, 35.0510599987524 ] } },
{ "type": "Feature", "properties": { "GlobalID": "ae7f7c24-3f9b-4f3d-a5f7-a4836a123611", "OBJECTID": 181, "Name": "East/West Station", "Street": "To Be Determined", "City": "Charlotte", "State": "NC", "Spaces": 0, "StopID": 0, "Status": "Proposed", "Lat": 35.210325, "Long": -80.855811, "Type": "Rail" }, "geometry": { "type": "Point", "coordinates": [ -80.855810863911103, 35.210324585593703 ] } },
{ "type": "Feature", "properties": { "GlobalID": "07fa39d9-beaa-4668-af4f-8cf68850202a", "OBJECTID": 182, "Name": "Central Church of God", "Street": "5301 Sardis Road", "City": "Charlotte", "State": "NC", "Spaces": 20, "StopID": 24190, "Status": "No Cost", "Lat": 35.16076, "Long": -80.787428, "Type": "Bus" }, "geometry": { "type": "Point", "coordinates": [ -80.787912370665296, 35.160497331596503 ] } },
{ "type": "Feature", "properties": { "GlobalID": "16b91a1c-8767-4da3-b04a-f48a22ac7d0a", "OBJECTID": 183, "Name": "I-485 Station Park and Ride", "Street": "9508 South Bv", "City": "Charlotte", "State": "NC", "Spaces": 1120, "StopID": 15, "Status": "CATS Owned", "Lat": 35.107133, "Long": -80.882906, "Type": "Rail" }, "geometry": { "type": "Point", "coordinates": [ -80.882906000982899, 35.107132999444097 ] } }
]
}
