{
"type": "FeatureCollection",
"name": "Landscape_Management_Storm_Requests",
"crs": { "type": "name", "properties": { "name": "urn:ogc:def:crs:OGC:1.3:CRS84" } },
"features": [
{ "type": "Feature", "properties": { "OBJECTID": 1, "ProblemType": "Storm Cleanup", "SRNumber": "71970", "STATUS": "CLOSED", "ReportedDate": "2022-09-26T08:04:09Z", "Address": "2010 CHARLOTTE DR", "PRIORITY": "5", "Blocked": "Partial But Passible", "UtilityLines": "", "DATETIMECLOSED": "2022-09-26T11:28:52Z" }, "geometry": { "type": "Point", "coordinates": [ -80.847149846167085, 35.200601797064223 ] } },
{ "type": "Feature", "properties": { "OBJECTID": 2, "ProblemType": "Storm Cleanup", "SRNumber": "71972", "STATUS": "CLOSED", "ReportedDate": "2022-09-26T10:28:01Z", "Address": "4428 HIGHLAND AV", "PRIORITY": "5", "Blocked": "", "UtilityLines": "", "DATETIMECLOSED": "2022-09-29T10:18:39Z" }, "geometry": { "type": "Point", "coordinates": [ -80.832158334649748, 35.280652529354093 ] } },
{ "type": "Feature", "properties": { "OBJECTID": 3, "ProblemType": "Storm Cleanup", "SRNumber": "71973", "STATUS": "CLOSED", "ReportedDate": "2022-09-26T10:45:09Z", "Address": "2141 BAY ST", "PRIORITY": "5", "Blocked": "No, On Roadside or Sidewalk", "UtilityLines": "YES", "DATETIMECLOSED": "2022-09-29T11:43:31Z" }, "geometry": { "type": "Point", "coordinates": [ -80.81209475151627, 35.214161545597875 ] } },
{ "type": "Feature", "properties": { "OBJECTID": 4, "ProblemType": "Storm Cleanup", "SRNumber": "71974", "STATUS": "CLOSED", "ReportedDate": "2022-09-26T11:17:09Z", "Address": "313 MCDONALD AV", "PRIORITY": "1", "Blocked": "No, On Roadside or Sidewalk", "UtilityLines": "", "DATETIMECLOSED": "2022-09-29T13:15:01Z" }, "geometry": { "type": "Point", "coordinates": [ -80.858798607083813, 35.206692618565562 ] } },
{ "type": "Feature", "properties": { "OBJECTID": 5, "ProblemType": "Storm Cleanup", "SRNumber": "72005", "STATUS": "CLOSED", "ReportedDate": "2022-09-27T14:12:42Z", "Address": "6231 FAIRVIEW RD", "PRIORITY": "5", "Blocked": "", "UtilityLines": "", "DATETIMECLOSED": "2022-09-29T11:40:01Z" }, "geometry": { "type": "Point", "coordinates": [ -80.835838351778975, 35.150907953648399 ] } },
{ "type": "Feature", "properties": { "OBJECTID": 6, "ProblemType": "Storm Cleanup", "SRNumber": "72008", "STATUS": "CLOSED", "ReportedDate": "2022-09-27T15:39:13Z", "Address": "1709 SPRINGDALE AV", "PRIORITY": "5", "Blocked": "", "UtilityLines": "", "DATETIMECLOSED": "2022-09-30T05:40:41Z" }, "geometry": { "type": "Point", "coordinates": [ -80.850975928695902, 35.208311170539005 ] } },
{ "type": "Feature", "properties": { "OBJECTID": 7, "ProblemType": "Storm Cleanup", "SRNumber": "72010", "STATUS": "Planned", "ReportedDate": "2022-09-27T16:00:51Z", "Address": "248 KESWICK AV", "PRIORITY": "3", "Blocked": "No, On Roadside or Sidewalk", "UtilityLines": "", "DATETIMECLOSED": null }, "geometry": { "type": "Point", "coordinates": [ -80.826622967556958, 35.242282759949141 ] } },
{ "type": "Feature", "properties": { "OBJECTID": 8, "ProblemType": "Storm Cleanup", "SRNumber": "72012", "STATUS": "CLOSED", "ReportedDate": "2022-09-27T19:24:03Z", "Address": "4142 OLDFIELD RD", "PRIORITY": "5", "Blocked": "Full No Passage", "UtilityLines": "NO", "DATETIMECLOSED": "2022-09-29T10:19:20Z" }, "geometry": { "type": "Point", "coordinates": [ -80.821797820973842, 35.12516789657095 ] } },
{ "type": "Feature", "properties": { "OBJECTID": 9, "ProblemType": "Storm Cleanup", "SRNumber": "72021", "STATUS": "CLOSED", "ReportedDate": "2022-09-28T12:15:07Z", "Address": "1720 MARYLAND AV", "PRIORITY": "1", "Blocked": "No, On Roadside or Sidewalk", "UtilityLines": "NO", "DATETIMECLOSED": "2022-10-01T10:57:13Z" }, "geometry": { "type": "Point", "coordinates": [ -80.841707473879424, 35.187983284407011 ] } },
{ "type": "Feature", "properties": { "OBJECTID": 10, "ProblemType": "Storm Cleanup", "SRNumber": "72026", "STATUS": "CLOSED", "ReportedDate": "2022-09-29T06:52:44Z", "Address": "8228 HORNWOOD CT", "PRIORITY": "5", "Blocked": "Partial But Passible", "UtilityLines": "", "DATETIMECLOSED": "2022-09-29T11:39:37Z" }, "geometry": { "type": "Point", "coordinates": [ -80.661719186664229, 35.2488936723284 ] } },
{ "type": "Feature", "properties": { "OBJECTID": 11, "ProblemType": "Storm Cleanup", "SRNumber": "72029", "STATUS": "CLOSED", "ReportedDate": "2022-09-29T10:32:30Z", "Address": "1320 NORRIS AV", "PRIORITY": "5", "Blocked": "Full No Passage", "UtilityLines": "NO", "DATETIMECLOSED": "2022-10-01T08:10:38Z" }, "geometry": { "type": "Point", "coordinates": [ -80.829500937093584, 35.257604546890938 ] } },
{ "type": "Feature", "properties": { "OBJECTID": 12, "ProblemType": "Storm Cleanup", "SRNumber": "72031", "STATUS": "CLOSED", "ReportedDate": "2022-09-29T12:18:12Z", "Address": "MOORES CHAPEL LP", "PRIORITY": "5", "Blocked": "Partial No Passage", "UtilityLines": "YES", "DATETIMECLOSED": "2022-09-29T12:36:37Z" }, "geometry": { "type": "Point", "coordinates": [ -81.004431129577455, 35.245654652286767 ] } },
{ "type": "Feature", "properties": { "OBJECTID": 13, "ProblemType": "Storm Cleanup", "SRNumber": "72032", "STATUS": "CLOSED", "ReportedDate": "2022-09-29T12:18:14Z", "Address": "MOORES CHAPEL LP", "PRIORITY": "5", "Blocked": "Partial No Passage", "UtilityLines": "YES", "DATETIMECLOSED": "2022-09-29T12:37:24Z" }, "geometry": { "type": "Point", "coordinates": [ -81.004431129577455, 35.245654652286767 ] } },
{ "type": "Feature", "properties": { "OBJECTID": 14, "ProblemType": "Storm Cleanup", "SRNumber": "72033", "STATUS": "CLOSED", "ReportedDate": "2022-09-29T12:28:27Z", "Address": "MOORES CHAPEL RD & LELAND ST, ,  28214", "PRIORITY": "3", "Blocked": "No, On Roadside or Sidewalk", "UtilityLines": "YES", "DATETIMECLOSED": "2022-10-05T12:52:55Z" }, "geometry": { "type": "Point", "coordinates": [ -80.948906092769818, 35.275139480538492 ] } },
{ "type": "Feature", "properties": { "OBJECTID": 15, "ProblemType": "Storm Cleanup", "SRNumber": "72034", "STATUS": "Planned", "ReportedDate": "2022-09-29T12:34:58Z", "Address": "6800 LANCER DR", "PRIORITY": "5", "Blocked": "Partial But Passible", "UtilityLines": "NO", "DATETIMECLOSED": null }, "geometry": { "type": "Point", "coordinates": [ -80.791295157948468, 35.119836378527189 ] } },
{ "type": "Feature", "properties": { "OBJECTID": 16, "ProblemType": "Storm Cleanup", "SRNumber": "72039", "STATUS": "CLOSED", "ReportedDate": "2022-09-29T14:33:18Z", "Address": "1340 NORRIS AV", "PRIORITY": "5", "Blocked": "Full No Passage", "UtilityLines": "NO", "DATETIMECLOSED": "2022-09-30T05:44:10Z" }, "geometry": { "type": "Point", "coordinates": [ -80.829849347525041, 35.257598149313438 ] } },
{ "type": "Feature", "properties": { "OBJECTID": 17, "ProblemType": "Storm Cleanup", "SRNumber": "72040", "STATUS": "CLOSED", "ReportedDate": "2022-09-29T14:38:02Z", "Address": "1927 QUEENS RD W", "PRIORITY": "1", "Blocked": "No, On Roadside or Sidewalk", "UtilityLines": "", "DATETIMECLOSED": "2022-10-01T09:44:51Z" }, "geometry": { "type": "Point", "coordinates": [ -80.839510659393298, 35.18297876613515 ] } },
{ "type": "Feature", "properties": { "OBJECTID": 18, "ProblemType": "Storm Cleanup", "SRNumber": "72042", "STATUS": "CLOSED", "ReportedDate": "2022-09-29T14:52:29Z", "Address": "QUEENS RD W & WESTFIELD RD, ,  28207", "PRIORITY": "1", "Blocked": "", "UtilityLines": "NO", "DATETIMECLOSED": "2022-09-30T09:41:21Z" }, "geometry": { "type": "Point", "coordinates": [ -80.839877725069897, 35.183534399197157 ] } },
{ "type": "Feature", "properties": { "OBJECTID": 19, "ProblemType": "Storm Cleanup", "SRNumber": "72043", "STATUS": "Planned", "ReportedDate": "2022-09-29T15:09:08Z", "Address": "GARDEN DISTRICT DR & N MYERS ST, ,  28202", "PRIORITY": "3", "Blocked": "No, On Roadside or Sidewalk", "UtilityLines": "", "DATETIMECLOSED": null }, "geometry": { "type": "Point", "coordinates": [ -80.830124410729155, 35.225485685985582 ] } },
{ "type": "Feature", "properties": { "OBJECTID": 20, "ProblemType": "Storm Cleanup", "SRNumber": "72044", "STATUS": "CLOSED", "ReportedDate": "2022-09-29T15:44:12Z", "Address": "1118 FONTANA AV", "PRIORITY": "1", "Blocked": "Partial But Passible", "UtilityLines": "", "DATETIMECLOSED": "2022-10-01T08:02:21Z" }, "geometry": { "type": "Point", "coordinates": [ -80.840400345076617, 35.245656373161161 ] } },
{ "type": "Feature", "properties": { "OBJECTID": 21, "ProblemType": "Storm Cleanup", "SRNumber": "72045", "STATUS": "CLOSED", "ReportedDate": "2022-09-29T16:21:49Z", "Address": "MOORES CHAPEL RD & TILDEN RD, ,  28214", "PRIORITY": "5", "Blocked": "", "UtilityLines": "", "DATETIMECLOSED": "2022-09-30T05:41:40Z" }, "geometry": { "type": "Point", "coordinates": [ -80.950251898253711, 35.275023675693348 ] } },
{ "type": "Feature", "properties": { "OBJECTID": 22, "ProblemType": "Storm Cleanup", "SRNumber": "72046", "STATUS": "CLOSED", "ReportedDate": "2022-09-29T16:57:36Z", "Address": "4800 STAFFORD CR", "PRIORITY": "5", "Blocked": "Partial But Passible", "UtilityLines": "NO", "DATETIMECLOSED": "2022-09-30T08:27:20Z" }, "geometry": { "type": "Point", "coordinates": [ -80.788602151801825, 35.175174516584228 ] } },
{ "type": "Feature", "properties": { "OBJECTID": 23, "ProblemType": "Storm Cleanup", "SRNumber": "72049", "STATUS": "CLOSED", "ReportedDate": "2022-09-30T08:23:25Z", "Address": "301 PLAINWOOD DR", "PRIORITY": "5", "Blocked": "Full No Passage", "UtilityLines": "NO", "DATETIMECLOSED": "2022-09-30T09:09:50Z" }, "geometry": { "type": "Point", "coordinates": [ -80.880496138466654, 35.271262847676503 ] } },
{ "type": "Feature", "properties": { "OBJECTID": 24, "ProblemType": "Storm Cleanup", "SRNumber": "72050", "STATUS": "CLOSED", "ReportedDate": "2022-09-30T08:41:49Z", "Address": "301 PLAINWOOD DR", "PRIORITY": "5", "Blocked": "", "UtilityLines": "", "DATETIMECLOSED": "2022-09-30T09:12:07Z" }, "geometry": { "type": "Point", "coordinates": [ -80.880512702454041, 35.2709777974666 ] } },
{ "type": "Feature", "properties": { "OBJECTID": 25, "ProblemType": "Storm Cleanup", "SRNumber": "72051", "STATUS": "CLOSED", "ReportedDate": "2022-09-30T09:30:05Z", "Address": "3024 HOLT ST", "PRIORITY": "5", "Blocked": "Full No Passage", "UtilityLines": "YES", "DATETIMECLOSED": "2022-10-01T09:08:49Z" }, "geometry": { "type": "Point", "coordinates": [ -80.800107145574458, 35.24033757621465 ] } },
{ "type": "Feature", "properties": { "OBJECTID": 26, "ProblemType": "Storm Cleanup", "SRNumber": "72052", "STATUS": "CLOSED", "ReportedDate": "2022-09-30T09:30:31Z", "Address": "E 34TH ST & HOLT ST, ,  28205", "PRIORITY": "5", "Blocked": "Full No Passage", "UtilityLines": "YES", "DATETIMECLOSED": "2022-09-30T09:53:14Z" }, "geometry": { "type": "Point", "coordinates": [ -80.800135528589365, 35.24039140745041 ] } },
{ "type": "Feature", "properties": { "OBJECTID": 27, "ProblemType": "Storm Cleanup", "SRNumber": "72055", "STATUS": "CLOSED", "ReportedDate": "2022-09-30T10:35:22Z", "Address": "EXCHANGE ST & TODDVILLE RD, ,  28208", "PRIORITY": "1", "Blocked": "No, On Roadside or Sidewalk", "UtilityLines": "", "DATETIMECLOSED": "2022-10-05T12:53:20Z" }, "geometry": { "type": "Point", "coordinates": [ -80.914275788975843, 35.272295629837977 ] } },
{ "type": "Feature", "properties": { "OBJECTID": 28, "ProblemType": "Storm Cleanup", "SRNumber": "72057", "STATUS": "CLOSED", "ReportedDate": "2022-09-30T10:49:36Z", "Address": "EXCHANGE ST & TODDVILLE RD, ,  28208", "PRIORITY": "5", "Blocked": "Partial But Passible", "UtilityLines": "NO", "DATETIMECLOSED": "2022-09-30T11:18:34Z" }, "geometry": { "type": "Point", "coordinates": [ -80.914275788975843, 35.272295629837977 ] } },
{ "type": "Feature", "properties": { "OBJECTID": 29, "ProblemType": "Storm Cleanup", "SRNumber": "72059", "STATUS": "CLOSED", "ReportedDate": "2022-09-30T13:30:00Z", "Address": "4335 MONTGOMERY GARDENS DR", "PRIORITY": "1", "Blocked": "No, On Roadside or Sidewalk", "UtilityLines": "NO", "DATETIMECLOSED": "2022-09-30T14:03:39Z" }, "geometry": { "type": "Point", "coordinates": [ -80.857391340591406, 35.306523523148151 ] } },
{ "type": "Feature", "properties": { "OBJECTID": 30, "ProblemType": "Storm Cleanup", "SRNumber": "72060", "STATUS": "CLOSED", "ReportedDate": "2022-09-30T13:44:32Z", "Address": "8500 MOODY RD", "PRIORITY": "5", "Blocked": "", "UtilityLines": "", "DATETIMECLOSED": "2022-09-30T15:11:31Z" }, "geometry": { "type": "Point", "coordinates": [ -80.715943665658628, 35.25336182882441 ] } },
{ "type": "Feature", "properties": { "OBJECTID": 31, "ProblemType": "Storm Cleanup", "SRNumber": "72061", "STATUS": "CLOSED", "ReportedDate": "2022-09-30T13:56:06Z", "Address": "5322 ROCKWOOD RD", "PRIORITY": "5", "Blocked": "Full No Passage", "UtilityLines": "YES", "DATETIMECLOSED": "2022-10-10T05:56:21Z" }, "geometry": { "type": "Point", "coordinates": [ -80.878683011966984, 35.297035881948148 ] } },
{ "type": "Feature", "properties": { "OBJECTID": 32, "ProblemType": "Storm Cleanup", "SRNumber": "72063", "STATUS": "Planned", "ReportedDate": "2022-09-30T14:26:03Z", "Address": "2800 COLUMBUS CR", "PRIORITY": "5", "Blocked": "Full No Passage", "UtilityLines": "NO", "DATETIMECLOSED": null }, "geometry": { "type": "Point", "coordinates": [ -80.881040291738302, 35.230425084051049 ] } },
{ "type": "Feature", "properties": { "OBJECTID": 33, "ProblemType": "Storm Cleanup", "SRNumber": "72064", "STATUS": "Planned", "ReportedDate": "2022-09-30T14:49:21Z", "Address": "5334 ROLLING OAK LN", "PRIORITY": "3", "Blocked": "No, On Roadside or Sidewalk", "UtilityLines": "", "DATETIMECLOSED": null }, "geometry": { "type": "Point", "coordinates": [ -80.711647145491582, 35.195254150484189 ] } },
{ "type": "Feature", "properties": { "OBJECTID": 34, "ProblemType": "Storm Cleanup", "SRNumber": "72065", "STATUS": "CLOSED", "ReportedDate": "2022-09-30T14:55:53Z", "Address": "5401 LEAFORD CT", "PRIORITY": "1", "Blocked": "Partial But Passible", "UtilityLines": "", "DATETIMECLOSED": "2022-10-02T09:54:07Z" }, "geometry": { "type": "Point", "coordinates": [ -80.706784964267044, 35.203442500398523 ] } },
{ "type": "Feature", "properties": { "OBJECTID": 35, "ProblemType": "Storm Cleanup", "SRNumber": "72067", "STATUS": "CLOSED", "ReportedDate": "2022-09-30T15:01:40Z", "Address": "1106 GRETNA GREEN DR", "PRIORITY": "5", "Blocked": "Full No Passage", "UtilityLines": "NO", "DATETIMECLOSED": "2022-10-01T12:28:55Z" }, "geometry": { "type": "Point", "coordinates": [ -80.91732071099338, 35.156604292995056 ] } },
{ "type": "Feature", "properties": { "OBJECTID": 36, "ProblemType": "Storm Cleanup", "SRNumber": "72068", "STATUS": "CLOSED", "ReportedDate": "2022-09-30T15:07:51Z", "Address": "N GRAHAM ST & DOGWOOD AV, ,  28206", "PRIORITY": "5", "Blocked": "", "UtilityLines": "", "DATETIMECLOSED": "2022-09-30T18:00:33Z" }, "geometry": { "type": "Point", "coordinates": [ -80.821271687067295, 35.259045824402548 ] } },
{ "type": "Feature", "properties": { "OBJECTID": 37, "ProblemType": "Storm Cleanup", "SRNumber": "72069", "STATUS": "CLOSED", "ReportedDate": "2022-09-30T15:09:08Z", "Address": "10432 ANNALEXA LN ", "PRIORITY": "1", "Blocked": "Full But Passible", "UtilityLines": "NO", "DATETIMECLOSED": "2022-10-01T09:54:23Z" }, "geometry": { "type": "Point", "coordinates": [ -80.779465461464397, 35.066364357465652 ] } },
{ "type": "Feature", "properties": { "OBJECTID": 38, "ProblemType": "Storm Cleanup", "SRNumber": "72070", "STATUS": "CLOSED", "ReportedDate": "2022-09-30T15:15:09Z", "Address": "2511 DOGWOOD CR", "PRIORITY": "3", "Blocked": "Partial But Passible", "UtilityLines": "", "DATETIMECLOSED": "2022-10-05T14:26:03Z" }, "geometry": { "type": "Point", "coordinates": [ -80.925425712363605, 35.253515025717945 ] } },
{ "type": "Feature", "properties": { "OBJECTID": 39, "ProblemType": "Storm Cleanup", "SRNumber": "72071", "STATUS": "CLOSED", "ReportedDate": "2022-09-30T15:25:29Z", "Address": "E TRADE ST & N DAVIDSON ST, ,  28202", "PRIORITY": "1", "Blocked": "No, On Roadside or Sidewalk", "UtilityLines": "", "DATETIMECLOSED": "2022-10-01T14:30:04Z" }, "geometry": { "type": "Point", "coordinates": [ -80.838022970375135, 35.222922765358064 ] } },
{ "type": "Feature", "properties": { "OBJECTID": 40, "ProblemType": "Storm Cleanup", "SRNumber": "72072", "STATUS": "CLOSED", "ReportedDate": "2022-09-30T15:38:18Z", "Address": "BEATTIES FORD RD & LYNCHESTER PL, ,  28216", "PRIORITY": "1", "Blocked": "Partial But Passible", "UtilityLines": "NO", "DATETIMECLOSED": "2022-10-03T10:37:01Z" }, "geometry": { "type": "Point", "coordinates": [ -80.855390501017496, 35.276764813704069 ] } },
{ "type": "Feature", "properties": { "OBJECTID": 41, "ProblemType": "Storm Cleanup", "SRNumber": "72073", "STATUS": "Planned", "ReportedDate": "2022-09-30T15:41:23Z", "Address": "6619 BRYNWOOD DR", "PRIORITY": "3", "Blocked": "Partial But Passible", "UtilityLines": "", "DATETIMECLOSED": null }, "geometry": { "type": "Point", "coordinates": [ -80.803498161892364, 35.113659823281075 ] } },
{ "type": "Feature", "properties": { "OBJECTID": 42, "ProblemType": "Storm Cleanup", "SRNumber": "72074", "STATUS": "CLOSED", "ReportedDate": "2022-09-30T15:41:32Z", "Address": "4100 DINGLEWOOD AV", "PRIORITY": "1", "Blocked": "Partial But Passible", "UtilityLines": "YES", "DATETIMECLOSED": "2022-10-03T12:29:00Z" }, "geometry": { "type": "Point", "coordinates": [ -80.787250985144311, 35.249091466948364 ] } },
{ "type": "Feature", "properties": { "OBJECTID": 43, "ProblemType": "Storm Cleanup", "SRNumber": "72077", "STATUS": "CLOSED", "ReportedDate": "2022-09-30T15:57:19Z", "Address": "7300 CARMEL RD", "PRIORITY": "1", "Blocked": "", "UtilityLines": "NO", "DATETIMECLOSED": "2022-10-01T12:32:22Z" }, "geometry": { "type": "Point", "coordinates": [ -80.852303100654282, 35.078169646908087 ] } },
{ "type": "Feature", "properties": { "OBJECTID": 44, "ProblemType": "Storm Cleanup", "SRNumber": "72078", "STATUS": "CLOSED", "ReportedDate": "2022-09-30T16:01:14Z", "Address": "3825 MOUNTAIN COVE DR", "PRIORITY": "3", "Blocked": "Partial No Passage", "UtilityLines": "NO", "DATETIMECLOSED": "2022-10-05T14:25:49Z" }, "geometry": { "type": "Point", "coordinates": [ -80.948501308930432, 35.338435003752828 ] } },
{ "type": "Feature", "properties": { "OBJECTID": 45, "ProblemType": "Storm Cleanup", "SRNumber": "72079", "STATUS": "CLOSED", "ReportedDate": "2022-09-30T16:02:02Z", "Address": "OLD PINEVILLE RD & E WOODLAWN RD, ,  28217", "PRIORITY": "1", "Blocked": "", "UtilityLines": "", "DATETIMECLOSED": "2022-09-30T17:00:14Z" }, "geometry": { "type": "Point", "coordinates": [ -80.87971008849135, 35.178026729594187 ] } },
{ "type": "Feature", "properties": { "OBJECTID": 46, "ProblemType": "Storm Cleanup", "SRNumber": "72080", "STATUS": "CLOSED", "ReportedDate": "2022-09-30T16:02:28Z", "Address": "1106 GRETNA GREEN DR", "PRIORITY": "5", "Blocked": "Partial But Passible", "UtilityLines": "NO", "DATETIMECLOSED": "2022-09-30T16:03:14Z" }, "geometry": { "type": "Point", "coordinates": [ -80.917303944372051, 35.156885667546355 ] } },
{ "type": "Feature", "properties": { "OBJECTID": 47, "ProblemType": "Storm Cleanup", "SRNumber": "72081", "STATUS": "CLOSED", "ReportedDate": "2022-09-30T16:03:18Z", "Address": "3825 MOUNTAIN COVE DR", "PRIORITY": "5", "Blocked": "Partial But Passible", "UtilityLines": "NO", "DATETIMECLOSED": "2022-09-30T16:04:13Z" }, "geometry": { "type": "Point", "coordinates": [ -80.948501308930432, 35.338435003752828 ] } },
{ "type": "Feature", "properties": { "OBJECTID": 48, "ProblemType": "Storm Cleanup", "SRNumber": "72082", "STATUS": "CLOSED", "ReportedDate": "2022-09-30T16:05:40Z", "Address": "4473 OLD PINEVILLE RD", "PRIORITY": "5", "Blocked": "Partial But Passible", "UtilityLines": "NO", "DATETIMECLOSED": "2022-09-30T16:06:24Z" }, "geometry": { "type": "Point", "coordinates": [ -80.879175647269307, 35.182286505181899 ] } },
{ "type": "Feature", "properties": { "OBJECTID": 49, "ProblemType": "Storm Cleanup", "SRNumber": "72083", "STATUS": "CLOSED", "ReportedDate": "2022-09-30T16:06:03Z", "Address": "4460 OLD PINEVILLE RD", "PRIORITY": "1", "Blocked": "Full No Passage", "UtilityLines": "NO", "DATETIMECLOSED": "2022-10-01T09:11:08Z" }, "geometry": { "type": "Point", "coordinates": [ -80.879661425953628, 35.182290330359905 ] } },
{ "type": "Feature", "properties": { "OBJECTID": 50, "ProblemType": "Storm Cleanup", "SRNumber": "72084", "STATUS": "CLOSED", "ReportedDate": "2022-09-30T16:07:16Z", "Address": "3638 QUAIL VIEW RD", "PRIORITY": "3", "Blocked": "Partial But Passible", "UtilityLines": "NO", "DATETIMECLOSED": "2022-10-01T13:54:29Z" }, "geometry": { "type": "Point", "coordinates": [ -80.834358559622004, 35.105595343636359 ] } },
{ "type": "Feature", "properties": { "OBJECTID": 51, "ProblemType": "Storm Cleanup", "SRNumber": "72085", "STATUS": "Planned", "ReportedDate": "2022-09-30T16:12:13Z", "Address": "WILLIAM WILEY DR & HOOD RD, ,  28215", "PRIORITY": "3", "Blocked": "Partial But Passible", "UtilityLines": "", "DATETIMECLOSED": null }, "geometry": { "type": "Point", "coordinates": [ -80.690690573213075, 35.262544525616164 ] } },
{ "type": "Feature", "properties": { "OBJECTID": 52, "ProblemType": "Storm Cleanup", "SRNumber": "72086", "STATUS": "CLOSED", "ReportedDate": "2022-09-30T16:22:20Z", "Address": "CARMEL RD & PAINTED TREE RD, ,  28226", "PRIORITY": "5", "Blocked": "Partial But Passible", "UtilityLines": "NO", "DATETIMECLOSED": "2022-09-30T16:35:14Z" }, "geometry": { "type": "Point", "coordinates": [ -80.854733590215389, 35.076927831947962 ] } },
{ "type": "Feature", "properties": { "OBJECTID": 53, "ProblemType": "Storm Cleanup", "SRNumber": "72087", "STATUS": "Planned", "ReportedDate": "2022-09-30T16:23:19Z", "Address": "2100 COLONY HILL DR", "PRIORITY": "1", "Blocked": "Partial But Passible", "UtilityLines": "NO", "DATETIMECLOSED": null }, "geometry": { "type": "Point", "coordinates": [ -80.959982503499589, 35.30048453010351 ] } },
{ "type": "Feature", "properties": { "OBJECTID": 54, "ProblemType": "Storm Cleanup", "SRNumber": "72088", "STATUS": "Planned", "ReportedDate": "2022-09-30T16:24:44Z", "Address": "GLENWOOD DR & ROWAN ST, ,  28208", "PRIORITY": "5", "Blocked": "Full No Passage", "UtilityLines": "YES", "DATETIMECLOSED": null }, "geometry": { "type": "Point", "coordinates": [ -80.891832552003038, 35.2579949150849 ] } },
{ "type": "Feature", "properties": { "OBJECTID": 55, "ProblemType": "Storm Cleanup", "SRNumber": "72089", "STATUS": "CLOSED", "ReportedDate": "2022-09-30T16:27:33Z", "Address": "ROBINSON CHURCH RD & FAIRFORD DR, ,  28215", "PRIORITY": "1", "Blocked": "", "UtilityLines": "NO", "DATETIMECLOSED": "2022-10-02T09:17:29Z" }, "geometry": { "type": "Point", "coordinates": [ -80.701090434100507, 35.237930098433559 ] } },
{ "type": "Feature", "properties": { "OBJECTID": 56, "ProblemType": "Storm Cleanup", "SRNumber": "72090", "STATUS": "CLOSED", "ReportedDate": "2022-09-30T16:38:54Z", "Address": "4337 GLENWOOD DR", "PRIORITY": "5", "Blocked": "Full No Passage", "UtilityLines": "YES", "DATETIMECLOSED": "2022-09-30T16:41:08Z" }, "geometry": { "type": "Point", "coordinates": [ -80.89116104276097, 35.256980838406186 ] } },
{ "type": "Feature", "properties": { "OBJECTID": 57, "ProblemType": "Storm Cleanup", "SRNumber": "72091", "STATUS": "CLOSED", "ReportedDate": "2022-09-30T16:43:56Z", "Address": "MONTFORD DR & BROCKBANK RD, ,  28209", "PRIORITY": "5", "Blocked": "Full No Passage", "UtilityLines": "NO", "DATETIMECLOSED": "2022-10-01T08:39:34Z" }, "geometry": { "type": "Point", "coordinates": [ -80.865828400312438, 35.171989176733106 ] } },
{ "type": "Feature", "properties": { "OBJECTID": 58, "ProblemType": "Storm Cleanup", "SRNumber": "72092", "STATUS": "CLOSED", "ReportedDate": "2022-09-30T16:47:04Z", "Address": "9619 TRESANTON DR", "PRIORITY": "1", "Blocked": "Partial But Passible", "UtilityLines": "NO", "DATETIMECLOSED": "2022-10-01T12:58:11Z" }, "geometry": { "type": "Point", "coordinates": [ -80.871268512896506, 35.101629187157961 ] } },
{ "type": "Feature", "properties": { "OBJECTID": 59, "ProblemType": "Storm Cleanup", "SRNumber": "72093", "STATUS": "CLOSED", "ReportedDate": "2022-09-30T16:50:57Z", "Address": "3108 KIRKLAND AV", "PRIORITY": "1", "Blocked": "No, On Roadside or Sidewalk", "UtilityLines": "NO", "DATETIMECLOSED": "2022-10-03T09:44:51Z" }, "geometry": { "type": "Point", "coordinates": [ -80.880336311318601, 35.242148691101995 ] } },
{ "type": "Feature", "properties": { "OBJECTID": 60, "ProblemType": "Storm Cleanup", "SRNumber": "72095", "STATUS": "CLOSED", "ReportedDate": "2022-09-30T17:00:10Z", "Address": "10838 GOLD PAN RD", "PRIORITY": "1", "Blocked": "", "UtilityLines": "", "DATETIMECLOSED": "2022-09-30T17:23:54Z" }, "geometry": { "type": "Point", "coordinates": [ -80.681475890299694, 35.255804152534367 ] } },
{ "type": "Feature", "properties": { "OBJECTID": 61, "ProblemType": "Storm Cleanup", "SRNumber": "72096", "STATUS": "CLOSED", "ReportedDate": "2022-09-30T17:01:19Z", "Address": "NOLLEY CT & GALLERIA BV, ,  28270", "PRIORITY": "1", "Blocked": "Full No Passage", "UtilityLines": "NO", "DATETIMECLOSED": "2022-10-01T10:01:41Z" }, "geometry": { "type": "Point", "coordinates": [ -80.738244055301635, 35.134647859637596 ] } },
{ "type": "Feature", "properties": { "OBJECTID": 62, "ProblemType": "Storm Cleanup", "SRNumber": "72097", "STATUS": "CLOSED", "ReportedDate": "2022-09-30T17:03:26Z", "Address": "8317 ADRIAN CT", "PRIORITY": "1", "Blocked": "", "UtilityLines": "YES", "DATETIMECLOSED": "2022-10-01T09:59:40Z" }, "geometry": { "type": "Point", "coordinates": [ -80.760483125531863, 35.127096472550612 ] } },
{ "type": "Feature", "properties": { "OBJECTID": 63, "ProblemType": "Storm Cleanup", "SRNumber": "72098", "STATUS": "CLOSED", "ReportedDate": "2022-09-30T17:09:45Z", "Address": "LAKE RD & OAKWOOD RD, ,  28269", "PRIORITY": "1", "Blocked": "Partial But Passible", "UtilityLines": "NO", "DATETIMECLOSED": "2022-10-05T14:26:17Z" }, "geometry": { "type": "Point", "coordinates": [ -80.833381020788124, 35.293906258145057 ] } },
{ "type": "Feature", "properties": { "OBJECTID": 64, "ProblemType": "Storm Cleanup", "SRNumber": "72099", "STATUS": "Planned", "ReportedDate": "2022-09-30T17:10:09Z", "Address": "6741 WINDYRUSH RD", "PRIORITY": "1", "Blocked": "No, On Roadside or Sidewalk", "UtilityLines": "", "DATETIMECLOSED": null }, "geometry": { "type": "Point", "coordinates": [ -80.79729175717307, 35.114957281691844 ] } },
{ "type": "Feature", "properties": { "OBJECTID": 65, "ProblemType": "Storm Cleanup", "SRNumber": "72100", "STATUS": "CLOSED", "ReportedDate": "2022-09-30T17:10:37Z", "Address": "ROLLING OAK LN and LAWYERS RD", "PRIORITY": "5", "Blocked": "Partial But Passible", "UtilityLines": "NO", "DATETIMECLOSED": "2022-09-30T17:11:57Z", "Shape": null }, "geometry": null },
{ "type": "Feature", "properties": { "OBJECTID": 66, "ProblemType": "Storm Cleanup", "SRNumber": "72101", "STATUS": "Planned", "ReportedDate": "2022-09-30T17:16:11Z", "Address": "3400 ERINBROOK LN", "PRIORITY": "5", "Blocked": "No, On Roadside or Sidewalk", "UtilityLines": "NO", "DATETIMECLOSED": null }, "geometry": { "type": "Point", "coordinates": [ -80.763107868341464, 35.240614065382744 ] } },
{ "type": "Feature", "properties": { "OBJECTID": 67, "ProblemType": "Storm Cleanup", "SRNumber": "72102", "STATUS": "CLOSED", "ReportedDate": "2022-09-30T17:18:14Z", "Address": "8229 WESTBOURNE DR", "PRIORITY": "3", "Blocked": "Partial But Passible", "UtilityLines": "YES", "DATETIMECLOSED": "2022-10-05T14:25:33Z" }, "geometry": { "type": "Point", "coordinates": [ -80.930226241218094, 35.302251458818752 ] } },
{ "type": "Feature", "properties": { "OBJECTID": 68, "ProblemType": "Storm Cleanup", "SRNumber": "72103", "STATUS": "Planned", "ReportedDate": "2022-09-30T17:39:17Z", "Address": "2004 CAMP GREENE ST", "PRIORITY": "5", "Blocked": "Full No Passage", "UtilityLines": "NO", "DATETIMECLOSED": null }, "geometry": { "type": "Point", "coordinates": [ -80.884256723685226, 35.22995601533114 ] } },
{ "type": "Feature", "properties": { "OBJECTID": 69, "ProblemType": "Storm Cleanup", "SRNumber": "72104", "STATUS": "CLOSED", "ReportedDate": "2022-09-30T17:41:21Z", "Address": "4520 BLACKMUIR WOOD CR", "PRIORITY": "1", "Blocked": "", "UtilityLines": "NO", "DATETIMECLOSED": "2022-10-01T08:42:26Z" }, "geometry": { "type": "Point", "coordinates": [ -80.750411508105572, 35.069757099733692 ] } },
{ "type": "Feature", "properties": { "OBJECTID": 70, "ProblemType": "Storm Cleanup", "SRNumber": "72105", "STATUS": "Planned", "ReportedDate": "2022-09-30T17:45:42Z", "Address": "2421 CATALINA AV", "PRIORITY": "5", "Blocked": "Full No Passage", "UtilityLines": "YES", "DATETIMECLOSED": null }, "geometry": { "type": "Point", "coordinates": [ -80.823082537091906, 35.249815556666761 ] } },
{ "type": "Feature", "properties": { "OBJECTID": 71, "ProblemType": "Storm Cleanup", "SRNumber": "72106", "STATUS": "Planned", "ReportedDate": "2022-09-30T17:45:58Z", "Address": "1315 SUGAR HOLLOW DR", "PRIORITY": "3", "Blocked": "Partial But Passible", "UtilityLines": "NO", "DATETIMECLOSED": null }, "geometry": { "type": "Point", "coordinates": [ -80.968529069545994, 35.302354792173318 ] } },
{ "type": "Feature", "properties": { "OBJECTID": 72, "ProblemType": "Storm Cleanup", "SRNumber": "72107", "STATUS": "CLOSED", "ReportedDate": "2022-09-30T17:47:22Z", "Address": "318 HONEYWOOD AV", "PRIORITY": "5", "Blocked": "Full No Passage", "UtilityLines": "YES", "DATETIMECLOSED": "2022-10-03T10:28:46Z" }, "geometry": { "type": "Point", "coordinates": [ -80.875108146564727, 35.262698027581479 ] } },
{ "type": "Feature", "properties": { "OBJECTID": 73, "ProblemType": "Storm Cleanup", "SRNumber": "72108", "STATUS": "Planned", "ReportedDate": "2022-09-30T17:49:59Z", "Address": "1809 MARIBEL AV", "PRIORITY": "5", "Blocked": "Full No Passage", "UtilityLines": "YES", "DATETIMECLOSED": null }, "geometry": { "type": "Point", "coordinates": [ -80.857525462810614, 35.261295568850045 ] } },
{ "type": "Feature", "properties": { "OBJECTID": 74, "ProblemType": "Storm Cleanup", "SRNumber": "72109", "STATUS": "Planned", "ReportedDate": "2022-09-30T17:55:09Z", "Address": "7918 DEEP HOLLOW CT", "PRIORITY": "1", "Blocked": "No, On Roadside or Sidewalk", "UtilityLines": "NO", "DATETIMECLOSED": null }, "geometry": { "type": "Point", "coordinates": [ -80.858092508714464, 35.072536765585156 ] } },
{ "type": "Feature", "properties": { "OBJECTID": 75, "ProblemType": "Storm Cleanup", "SRNumber": "72110", "STATUS": "CLOSED", "ReportedDate": "2022-09-30T17:55:16Z", "Address": "W TRADE ST & N GRAHAM ST, ,  28202", "PRIORITY": "3", "Blocked": "Partial But Passible", "UtilityLines": "", "DATETIMECLOSED": "2022-10-01T15:44:04Z" }, "geometry": { "type": "Point", "coordinates": [ -80.847023839789415, 35.230597722863735 ] } },
{ "type": "Feature", "properties": { "OBJECTID": 76, "ProblemType": "Storm Cleanup", "SRNumber": "72111", "STATUS": "CLOSED", "ReportedDate": "2022-09-30T17:59:21Z", "Address": "6535 KENTDALE CT", "PRIORITY": "3", "Blocked": "No, On Roadside or Sidewalk", "UtilityLines": "NO", "DATETIMECLOSED": "2022-10-01T09:54:54Z" }, "geometry": { "type": "Point", "coordinates": [ -80.777795458445027, 35.12718374842693 ] } },
{ "type": "Feature", "properties": { "OBJECTID": 77, "ProblemType": "Storm Cleanup", "SRNumber": "72112", "STATUS": "CLOSED", "ReportedDate": "2022-09-30T17:59:42Z", "Address": "CAMP GREENE ST & GARIBALDI AV, ,  28208", "PRIORITY": "5", "Blocked": "", "UtilityLines": "", "DATETIMECLOSED": "2022-10-01T05:15:28Z" }, "geometry": { "type": "Point", "coordinates": [ -80.884189093636877, 35.230081357053741 ] } },
{ "type": "Feature", "properties": { "OBJECTID": 78, "ProblemType": "Storm Cleanup", "SRNumber": "72113", "STATUS": "CLOSED", "ReportedDate": "2022-09-30T18:00:19Z", "Address": "S KINGS DR & ARDSLEY RD, ,  28207", "PRIORITY": "1", "Blocked": "No, On Roadside or Sidewalk", "UtilityLines": "NO", "DATETIMECLOSED": "2022-10-03T09:45:10Z" }, "geometry": { "type": "Point", "coordinates": [ -80.836334913434825, 35.200027485829736 ] } },
{ "type": "Feature", "properties": { "OBJECTID": 79, "ProblemType": "Storm Cleanup", "SRNumber": "72114", "STATUS": "CLOSED", "ReportedDate": "2022-09-30T18:01:43Z", "Address": "9400 ROBINSON CHURCH RD", "PRIORITY": "1", "Blocked": "No, On Roadside or Sidewalk", "UtilityLines": "NO", "DATETIMECLOSED": "2022-10-05T12:48:16Z" }, "geometry": { "type": "Point", "coordinates": [ -80.684736688467808, 35.241765680832678 ] } },
{ "type": "Feature", "properties": { "OBJECTID": 80, "ProblemType": "Storm Cleanup", "SRNumber": "72115", "STATUS": "CLOSED", "ReportedDate": "2022-09-30T18:03:26Z", "Address": "7000 ROLLINGRIDGE DR", "PRIORITY": "5", "Blocked": "Full No Passage", "UtilityLines": "NO", "DATETIMECLOSED": "2022-10-01T16:31:44Z" }, "geometry": { "type": "Point", "coordinates": [ -80.765307629655766, 35.154670796058696 ] } },
{ "type": "Feature", "properties": { "OBJECTID": 81, "ProblemType": "Storm Cleanup", "SRNumber": "72116", "STATUS": "CLOSED", "ReportedDate": "2022-09-30T18:05:36Z", "Address": "8600 OLD PLANK RD", "PRIORITY": "1", "Blocked": "No, On Roadside or Sidewalk", "UtilityLines": "NO", "DATETIMECLOSED": "2022-10-03T10:38:10Z" }, "geometry": { "type": "Point", "coordinates": [ -80.932608163106124, 35.309100344778649 ] } },
{ "type": "Feature", "properties": { "OBJECTID": 82, "ProblemType": "Storm Cleanup", "SRNumber": "72117", "STATUS": "CLOSED", "ReportedDate": "2022-09-30T18:06:31Z", "Address": "11915 PARK RD", "PRIORITY": "5", "Blocked": "Partial But Passible", "UtilityLines": "YES", "DATETIMECLOSED": "2022-10-01T10:02:36Z" }, "geometry": { "type": "Point", "coordinates": [ -80.871235873692427, 35.077114736963132 ] } },
{ "type": "Feature", "properties": { "OBJECTID": 83, "ProblemType": "Storm Cleanup", "SRNumber": "72118", "STATUS": "CLOSED", "ReportedDate": "2022-09-30T18:09:49Z", "Address": "UNIVERSITY CITY BV & N SHOPPING CENTER DR, ,  28213", "PRIORITY": "1", "Blocked": "Partial But Passible", "UtilityLines": "NO", "DATETIMECLOSED": "2022-10-01T08:39:56Z" }, "geometry": { "type": "Point", "coordinates": [ -80.74800307221561, 35.293648916841057 ] } },
{ "type": "Feature", "properties": { "OBJECTID": 84, "ProblemType": "Storm Cleanup", "SRNumber": "72119", "STATUS": "CLOSED", "ReportedDate": "2022-09-30T18:10:12Z", "Address": "17112 MCKEE RD", "PRIORITY": "5", "Blocked": "Full No Passage", "UtilityLines": "NO", "DATETIMECLOSED": "2022-09-30T18:12:16Z" }, "geometry": { "type": "Point", "coordinates": [ -81.020500559550101, 35.066489900810325 ] } },
{ "type": "Feature", "properties": { "OBJECTID": 85, "ProblemType": "Storm Cleanup", "SRNumber": "72120", "STATUS": "CLOSED", "ReportedDate": "2022-09-30T18:12:07Z", "Address": "3919 HIGHVIEW RD", "PRIORITY": "1", "Blocked": "No, On Roadside or Sidewalk", "UtilityLines": "NO", "DATETIMECLOSED": "2022-10-01T11:05:42Z" }, "geometry": { "type": "Point", "coordinates": [ -80.828838216918285, 35.12990655862567 ] } },
{ "type": "Feature", "properties": { "OBJECTID": 86, "ProblemType": "Storm Cleanup", "SRNumber": "72121", "STATUS": "CLOSED", "ReportedDate": "2022-09-30T18:13:18Z", "Address": "8628 DOE RUN RD", "PRIORITY": "5", "Blocked": "Partial But Passible", "UtilityLines": "NO", "DATETIMECLOSED": "2022-10-01T14:02:40Z" }, "geometry": { "type": "Point", "coordinates": [ -80.807651306358352, 35.046667081395299 ] } },
{ "type": "Feature", "properties": { "OBJECTID": 87, "ProblemType": "Storm Cleanup", "SRNumber": "72122", "STATUS": "CLOSED", "ReportedDate": "2022-09-30T18:14:07Z", "Address": "7015 ROLLINGRIDGE DR", "PRIORITY": "5", "Blocked": "Full But Passible", "UtilityLines": "NO", "DATETIMECLOSED": "2022-10-01T07:36:30Z" }, "geometry": { "type": "Point", "coordinates": [ -80.765997273242334, 35.154354493964291 ] } },
{ "type": "Feature", "properties": { "OBJECTID": 88, "ProblemType": "Storm Cleanup", "SRNumber": "72123", "STATUS": "CLOSED", "ReportedDate": "2022-09-30T18:15:34Z", "Address": "7020 TABOR LN", "PRIORITY": "1", "Blocked": "Partial But Passible", "UtilityLines": "NO", "DATETIMECLOSED": "2022-10-04T14:38:15Z" }, "geometry": { "type": "Point", "coordinates": [ -80.765593092058239, 35.152532890190422 ] } },
{ "type": "Feature", "properties": { "OBJECTID": 89, "ProblemType": "Storm Cleanup", "SRNumber": "72124", "STATUS": "Planned", "ReportedDate": "2022-09-30T18:20:59Z", "Address": "2613 HUTCHISON-MCDONALD RD", "PRIORITY": "5", "Blocked": "Full No Passage", "UtilityLines": "NO", "DATETIMECLOSED": null }, "geometry": { "type": "Point", "coordinates": [ -80.844526185388887, 35.283223821174992 ] } },
{ "type": "Feature", "properties": { "OBJECTID": 90, "ProblemType": "Storm Cleanup", "SRNumber": "72125", "STATUS": "CLOSED", "ReportedDate": "2022-09-30T18:22:25Z", "Address": "NOLLEY CT & GALLERIA BV, ,  28270", "PRIORITY": "5", "Blocked": "Full No Passage", "UtilityLines": "NO", "DATETIMECLOSED": "2022-10-01T06:20:41Z" }, "geometry": { "type": "Point", "coordinates": [ -80.738244055301635, 35.134647859637596 ] } },
{ "type": "Feature", "properties": { "OBJECTID": 91, "ProblemType": "Storm Cleanup", "SRNumber": "72126", "STATUS": "CLOSED", "ReportedDate": "2022-09-30T18:22:36Z", "Address": "HARROWFIELD RD & CARMEL RD, ,  28226", "PRIORITY": "1", "Blocked": "", "UtilityLines": "NO", "DATETIMECLOSED": "2022-10-01T12:32:46Z" }, "geometry": { "type": "Point", "coordinates": [ -80.85153121473455, 35.079159970289581 ] } },
{ "type": "Feature", "properties": { "OBJECTID": 92, "ProblemType": "Storm Cleanup", "SRNumber": "72127", "STATUS": "CLOSED", "ReportedDate": "2022-09-30T18:26:39Z", "Address": "831 MILLBROOK RD", "PRIORITY": "3", "Blocked": "No, On Roadside or Sidewalk", "UtilityLines": "NO", "DATETIMECLOSED": "2022-10-01T16:32:06Z" }, "geometry": { "type": "Point", "coordinates": [ -80.793121710825389, 35.18770631415525 ] } },
{ "type": "Feature", "properties": { "OBJECTID": 93, "ProblemType": "Storm Cleanup", "SRNumber": "72128", "STATUS": "Planned", "ReportedDate": "2022-09-30T18:32:02Z", "Address": "CONISTON PL & S KINGS DR, ,  28207", "PRIORITY": "5", "Blocked": "Full No Passage", "UtilityLines": "YES", "DATETIMECLOSED": null }, "geometry": { "type": "Point", "coordinates": [ -80.836459975220322, 35.198965723725131 ] } },
{ "type": "Feature", "properties": { "OBJECTID": 94, "ProblemType": "Storm Cleanup", "SRNumber": "72129", "STATUS": "CLOSED", "ReportedDate": "2022-09-30T18:34:46Z", "Address": "7223 HACKBERRY LN", "PRIORITY": "1", "Blocked": "No, On Roadside or Sidewalk", "UtilityLines": "", "DATETIMECLOSED": "2022-10-01T13:17:25Z" }, "geometry": { "type": "Point", "coordinates": [ -80.849496428447324, 35.07601682477712 ] } },
{ "type": "Feature", "properties": { "OBJECTID": 95, "ProblemType": "Storm Cleanup", "SRNumber": "72130", "STATUS": "CLOSED", "ReportedDate": "2022-09-30T18:48:30Z", "Address": "2320 CATALINA AV, ,  28206", "PRIORITY": "1", "Blocked": "No, On Roadside or Sidewalk", "UtilityLines": "NO", "DATETIMECLOSED": "2022-10-03T10:37:34Z" }, "geometry": { "type": "Point", "coordinates": [ -80.824221792294992, 35.24851753619798 ] } },
{ "type": "Feature", "properties": { "OBJECTID": 96, "ProblemType": "Storm Cleanup", "SRNumber": "72131", "STATUS": "Planned", "ReportedDate": "2022-09-30T18:49:27Z", "Address": "156 HUNTLEY PL", "PRIORITY": "5", "Blocked": "Partial But Passible", "UtilityLines": "YES", "DATETIMECLOSED": null }, "geometry": { "type": "Point", "coordinates": [ -80.824768225218406, 35.195728809284461 ] } },
{ "type": "Feature", "properties": { "OBJECTID": 97, "ProblemType": "Storm Cleanup", "SRNumber": "72132", "STATUS": "CLOSED", "ReportedDate": "2022-09-30T18:56:05Z", "Address": "6025 GATE POST RD", "PRIORITY": "1", "Blocked": "", "UtilityLines": "NO", "DATETIMECLOSED": "2022-10-01T14:30:30Z" }, "geometry": { "type": "Point", "coordinates": [ -80.773604981954193, 35.164133627741521 ] } },
{ "type": "Feature", "properties": { "OBJECTID": 98, "ProblemType": "Storm Cleanup", "SRNumber": "72133", "STATUS": "Planned", "ReportedDate": "2022-09-30T18:57:19Z", "Address": "3228 DEVON CROFT LN", "PRIORITY": "3", "Blocked": "Partial But Passible", "UtilityLines": "NO", "DATETIMECLOSED": null }, "geometry": { "type": "Point", "coordinates": [ -80.778006720431264, 35.332631914215519 ] } },
{ "type": "Feature", "properties": { "OBJECTID": 99, "ProblemType": "Storm Cleanup", "SRNumber": "72134", "STATUS": "Planned", "ReportedDate": "2022-09-30T18:59:32Z", "Address": "PARK DR & CLEMENT AV, ,  28204", "PRIORITY": "5", "Blocked": "Full No Passage", "UtilityLines": "YES", "DATETIMECLOSED": null }, "geometry": { "type": "Point", "coordinates": [ -80.821579271837862, 35.212582482921491 ] } },
{ "type": "Feature", "properties": { "OBJECTID": 100, "ProblemType": "Storm Cleanup", "SRNumber": "72135", "STATUS": "CLOSED", "ReportedDate": "2022-09-30T19:02:26Z", "Address": "CHRISTENBURY RD & ACCIPITER WY, ,  28269", "PRIORITY": "1", "Blocked": "No, On Roadside or Sidewalk", "UtilityLines": "NO", "DATETIMECLOSED": "2022-10-06T12:58:16Z" }, "geometry": { "type": "Point", "coordinates": [ -80.746924475344215, 35.380113967458037 ] } },
{ "type": "Feature", "properties": { "OBJECTID": 101, "ProblemType": "Storm Cleanup", "SRNumber": "72136", "STATUS": "Planned", "ReportedDate": "2022-09-30T19:04:26Z", "Address": "1020 BELMONT AV", "PRIORITY": "5", "Blocked": "Full No Passage", "UtilityLines": "YES", "DATETIMECLOSED": null }, "geometry": { "type": "Point", "coordinates": [ -80.82056595689869, 35.227162151513824 ] } },
{ "type": "Feature", "properties": { "OBJECTID": 102, "ProblemType": "Storm Cleanup", "SRNumber": "72137", "STATUS": "CLOSED", "ReportedDate": "2022-09-30T19:10:08Z", "Address": "NOLLEY CT/GALLERIA BV", "PRIORITY": "5", "Blocked": "Full No Passage", "UtilityLines": "NO", "DATETIMECLOSED": "2022-10-01T05:25:32Z", "Shape": null }, "geometry": null },
{ "type": "Feature", "properties": { "OBJECTID": 103, "ProblemType": "Storm Cleanup", "SRNumber": "72138", "STATUS": "Planned", "ReportedDate": "2022-09-30T19:22:24Z", "Address": "5409 LANSING DR", "PRIORITY": "5", "Blocked": "Partial No Passage", "UtilityLines": "NO", "DATETIMECLOSED": null }, "geometry": { "type": "Point", "coordinates": [ -80.775502934175151, 35.15109608700633 ] } },
{ "type": "Feature", "properties": { "OBJECTID": 104, "ProblemType": "Storm Cleanup", "SRNumber": "72139", "STATUS": "CLOSED", "ReportedDate": "2022-09-30T19:30:09Z", "Address": "6745 MORGANFORD RD", "PRIORITY": "3", "Blocked": "Partial But Passible", "UtilityLines": "NO", "DATETIMECLOSED": "2022-10-01T16:30:37Z" }, "geometry": { "type": "Point", "coordinates": [ -80.767557339782286, 35.15593385254482 ] } },
{ "type": "Feature", "properties": { "OBJECTID": 105, "ProblemType": "Storm Cleanup", "SRNumber": "72140", "STATUS": "CLOSED", "ReportedDate": "2022-09-30T19:44:06Z", "Address": "5409 LANSING DR", "PRIORITY": "5", "Blocked": "Partial But Passible", "UtilityLines": "NO", "DATETIMECLOSED": "2022-10-01T06:14:57Z" }, "geometry": { "type": "Point", "coordinates": [ -80.775502934175151, 35.15109608700633 ] } },
{ "type": "Feature", "properties": { "OBJECTID": 106, "ProblemType": "Storm Cleanup", "SRNumber": "72141", "STATUS": "Planned", "ReportedDate": "2022-09-30T19:47:08Z", "Address": "10318 STONEYKIRK LN", "PRIORITY": "3", "Blocked": "Partial But Passible", "UtilityLines": "NO", "DATETIMECLOSED": null }, "geometry": { "type": "Point", "coordinates": [ -80.778081028444191, 35.358429543580876 ] } },
{ "type": "Feature", "properties": { "OBJECTID": 107, "ProblemType": "Storm Cleanup", "SRNumber": "72142", "STATUS": "CLOSED", "ReportedDate": "2022-09-30T19:51:05Z", "Address": "6701 ROBINSON CHURCH RD", "PRIORITY": "3", "Blocked": "Partial But Passible", "UtilityLines": "NO", "DATETIMECLOSED": "2022-10-01T14:08:31Z" }, "geometry": { "type": "Point", "coordinates": [ -80.730236966636383, 35.232026088465126 ] } },
{ "type": "Feature", "properties": { "OBJECTID": 108, "ProblemType": "Storm Cleanup", "SRNumber": "72143", "STATUS": "CLOSED", "ReportedDate": "2022-09-30T19:59:14Z", "Address": "CAMP GREENE ST & GARIBALDI AV, ,  28208", "PRIORITY": "5", "Blocked": "Full No Passage", "UtilityLines": "NO", "DATETIMECLOSED": "2022-10-01T10:21:05Z" }, "geometry": { "type": "Point", "coordinates": [ -80.884189093636877, 35.230081357053741 ] } },
{ "type": "Feature", "properties": { "OBJECTID": 109, "ProblemType": "Storm Cleanup", "SRNumber": "72144", "STATUS": "CLOSED", "ReportedDate": "2022-09-30T20:06:20Z", "Address": "DOE RUN RD & PARKS FARM LN, ,  28277", "PRIORITY": "5", "Blocked": "Full No Passage", "UtilityLines": "NO", "DATETIMECLOSED": "2022-10-01T07:12:16Z" }, "geometry": { "type": "Point", "coordinates": [ -80.807467353783807, 35.046357697344774 ] } },
{ "type": "Feature", "properties": { "OBJECTID": 110, "ProblemType": "Storm Cleanup", "SRNumber": "72145", "STATUS": "Planned", "ReportedDate": "2022-09-30T20:10:54Z", "Address": "CASTLEGATE DR & KNIGHTSWOOD DR, ,  28226", "PRIORITY": "1", "Blocked": "No, On Roadside or Sidewalk", "UtilityLines": "NO", "DATETIMECLOSED": null }, "geometry": { "type": "Point", "coordinates": [ -80.791153745993398, 35.116329556236586 ] } },
{ "type": "Feature", "properties": { "OBJECTID": 111, "ProblemType": "Storm Cleanup", "SRNumber": "72146", "STATUS": "CLOSED", "ReportedDate": "2022-09-30T20:12:21Z", "Address": "KENTUCKY AV & CENTRE ST, ,  28216", "PRIORITY": "5", "Blocked": "Partial But Passible", "UtilityLines": "", "DATETIMECLOSED": "2022-10-01T08:16:04Z" }, "geometry": { "type": "Point", "coordinates": [ -80.872960001565247, 35.261334115070376 ] } },
{ "type": "Feature", "properties": { "OBJECTID": 112, "ProblemType": "Storm Cleanup", "SRNumber": "72147", "STATUS": "CLOSED", "ReportedDate": "2022-09-30T20:21:25Z", "Address": "E 34TH ST & HOLT ST, ,  28205", "PRIORITY": "5", "Blocked": "Partial But Passible", "UtilityLines": "NO", "DATETIMECLOSED": "2022-10-01T07:16:57Z" }, "geometry": { "type": "Point", "coordinates": [ -80.800135528589365, 35.24039140745041 ] } },
{ "type": "Feature", "properties": { "OBJECTID": 113, "ProblemType": "Storm Cleanup", "SRNumber": "72148", "STATUS": "CLOSED", "ReportedDate": "2022-09-30T20:27:52Z", "Address": "GRANVILLE RD & QUEENS RD WEST, ,  28207", "PRIORITY": "3", "Blocked": "Partial But Passible", "UtilityLines": "NO", "DATETIMECLOSED": "2022-10-03T09:45:24Z" }, "geometry": { "type": "Point", "coordinates": [ -80.828934089486665, 35.198102352970217 ] } },
{ "type": "Feature", "properties": { "OBJECTID": 114, "ProblemType": "Storm Cleanup", "SRNumber": "72149", "STATUS": "Planned", "ReportedDate": "2022-09-30T20:34:23Z", "Address": "MANCHESTER DR & BARFIELD DR, ,  28217", "PRIORITY": "1", "Blocked": "No, On Roadside or Sidewalk", "UtilityLines": "YES", "DATETIMECLOSED": null }, "geometry": { "type": "Point", "coordinates": [ -80.886674052346677, 35.204395782415276 ] } },
{ "type": "Feature", "properties": { "OBJECTID": 115, "ProblemType": "Storm Cleanup", "SRNumber": "72150", "STATUS": "CLOSED", "ReportedDate": "2022-09-30T20:43:23Z", "Address": "3951 OLD WAGON RD", "PRIORITY": "5", "Blocked": "Full No Passage", "UtilityLines": "NO", "DATETIMECLOSED": "2022-10-01T09:03:26Z" }, "geometry": { "type": "Point", "coordinates": [ -80.821023636399275, 35.308012744059035 ] } },
{ "type": "Feature", "properties": { "OBJECTID": 116, "ProblemType": "Storm Cleanup", "SRNumber": "72151", "STATUS": "CLOSED", "ReportedDate": "2022-09-30T20:44:10Z", "Address": "6601 WAGON OAK RD", "PRIORITY": "5", "Blocked": "Full No Passage", "UtilityLines": "NO", "DATETIMECLOSED": "2022-10-01T06:10:19Z" }, "geometry": { "type": "Point", "coordinates": [ -80.734984726898233, 35.217059618327781 ] } },
{ "type": "Feature", "properties": { "OBJECTID": 117, "ProblemType": "Storm Cleanup", "SRNumber": "72152", "STATUS": "Planned", "ReportedDate": "2022-09-30T20:51:30Z", "Address": "6608 WAGON OAK RD", "PRIORITY": "3", "Blocked": "Full No Passage", "UtilityLines": "NO", "DATETIMECLOSED": null }, "geometry": { "type": "Point", "coordinates": [ -80.734603879341691, 35.216938321545022 ] } },
{ "type": "Feature", "properties": { "OBJECTID": 118, "ProblemType": "Storm Cleanup", "SRNumber": "72153", "STATUS": "Planned", "ReportedDate": "2022-09-30T21:07:30Z", "Address": "6114 SHELLEY AV", "PRIORITY": "3", "Blocked": "Partial But Passible", "UtilityLines": "NO", "DATETIMECLOSED": null }, "geometry": { "type": "Point", "coordinates": [ -80.76403813470462, 35.375267941030877 ] } },
{ "type": "Feature", "properties": { "OBJECTID": 119, "ProblemType": "Storm Cleanup", "SRNumber": "72154", "STATUS": "CLOSED", "ReportedDate": "2022-09-30T21:08:14Z", "Address": "3100 DUNN AV", "PRIORITY": "5", "Blocked": "Full No Passage", "UtilityLines": "NO", "DATETIMECLOSED": "2022-10-01T14:09:08Z" }, "geometry": { "type": "Point", "coordinates": [ -80.804481112856692, 35.202268773306045 ] } },
{ "type": "Feature", "properties": { "OBJECTID": 120, "ProblemType": "Storm Cleanup", "SRNumber": "72155", "STATUS": "CLOSED", "ReportedDate": "2022-09-30T21:09:37Z", "Address": "501 ALPHA ST", "PRIORITY": "1", "Blocked": "", "UtilityLines": "NO", "DATETIMECLOSED": "2022-10-01T13:57:53Z" }, "geometry": { "type": "Point", "coordinates": [ -80.804063499340018, 35.200814549493394 ] } },
{ "type": "Feature", "properties": { "OBJECTID": 121, "ProblemType": "Storm Cleanup", "SRNumber": "72156", "STATUS": "Planned", "ReportedDate": "2022-09-30T21:14:20Z", "Address": "3409 OAK TREE TL", "PRIORITY": "5", "Blocked": "Full No Passage", "UtilityLines": "NO", "DATETIMECLOSED": null }, "geometry": { "type": "Point", "coordinates": [ -80.718720953070985, 35.159160964251406 ] } },
{ "type": "Feature", "properties": { "OBJECTID": 122, "ProblemType": "Storm Cleanup", "SRNumber": "72157", "STATUS": "CLOSED", "ReportedDate": "2022-09-30T21:17:49Z", "Address": "GATESTONE LN & WHITE POPLAR DR, ,  28134", "PRIORITY": "5", "Blocked": "Full No Passage", "UtilityLines": "NO", "DATETIMECLOSED": "2022-10-01T07:21:34Z" }, "geometry": { "type": "Point", "coordinates": [ -80.879021220563175, 35.0555169607699 ] } },
{ "type": "Feature", "properties": { "OBJECTID": 123, "ProblemType": "Storm Cleanup", "SRNumber": "72158", "STATUS": "CLOSED", "ReportedDate": "2022-09-30T21:20:10Z", "Address": "5219 DOLPHIN LN", "PRIORITY": "5", "Blocked": "Full No Passage", "UtilityLines": "NO", "DATETIMECLOSED": "2022-10-01T09:43:37Z" }, "geometry": { "type": "Point", "coordinates": [ -80.762026618179348, 35.245127666939332 ] } },
{ "type": "Feature", "properties": { "OBJECTID": 124, "ProblemType": "Storm Cleanup", "SRNumber": "72159", "STATUS": "Planned", "ReportedDate": "2022-09-30T21:23:01Z", "Address": "CENTRE ST & TENNESSEE AV, ,  28216", "PRIORITY": "3", "Blocked": "Partial But Passible", "UtilityLines": "NO", "DATETIMECLOSED": null }, "geometry": { "type": "Point", "coordinates": [ -80.87199423321475, 35.262210139328275 ] } },
{ "type": "Feature", "properties": { "OBJECTID": 125, "ProblemType": "Storm Cleanup", "SRNumber": "72160", "STATUS": "CLOSED", "ReportedDate": "2022-09-30T21:29:22Z", "Address": "8835 IRA FLOWE RD", "PRIORITY": "5", "Blocked": "Full No Passage", "UtilityLines": "NO", "DATETIMECLOSED": "2022-10-01T07:12:40Z" }, "geometry": { "type": "Point", "coordinates": [ -80.582131892491915, 35.195983829783678 ] } },
{ "type": "Feature", "properties": { "OBJECTID": 126, "ProblemType": "Storm Cleanup", "SRNumber": "72161", "STATUS": "CLOSED", "ReportedDate": "2022-09-30T21:37:19Z", "Address": "QUEENS RD/GRANVILLE RD", "PRIORITY": "5", "Blocked": "Partial But Passible", "UtilityLines": "YES", "DATETIMECLOSED": "2022-10-01T07:15:51Z", "Shape": null }, "geometry": null },
{ "type": "Feature", "properties": { "OBJECTID": 127, "ProblemType": "Storm Cleanup", "SRNumber": "72162", "STATUS": "CLOSED", "ReportedDate": "2022-09-30T21:37:33Z", "Address": "2613 HUTCHISON-MCDONALD RD", "PRIORITY": "5", "Blocked": "Partial But Passible", "UtilityLines": "NO", "DATETIMECLOSED": "2022-10-01T08:50:58Z" }, "geometry": { "type": "Point", "coordinates": [ -80.844526185388887, 35.283223821174992 ] } },
{ "type": "Feature", "properties": { "OBJECTID": 128, "ProblemType": "Storm Cleanup", "SRNumber": "72163", "STATUS": "CLOSED", "ReportedDate": "2022-09-30T21:42:52Z", "Address": "300 WAKEFIELD DR", "PRIORITY": "5", "Blocked": "Partial But Passible", "UtilityLines": "NO", "DATETIMECLOSED": "2022-10-01T09:43:17Z" }, "geometry": { "type": "Point", "coordinates": [ -80.844851964262133, 35.16845969007209 ] } },
{ "type": "Feature", "properties": { "OBJECTID": 129, "ProblemType": "Storm Cleanup", "SRNumber": "72164", "STATUS": "CLOSED", "ReportedDate": "2022-09-30T21:44:16Z", "Address": "1327 MORETZ AV", "PRIORITY": "3", "Blocked": "Partial But Passible", "UtilityLines": "YES", "DATETIMECLOSED": "2022-10-04T10:58:24Z" }, "geometry": { "type": "Point", "coordinates": [ -80.832322334066262, 35.255930723671078 ] } },
{ "type": "Feature", "properties": { "OBJECTID": 130, "ProblemType": "Storm Cleanup", "SRNumber": "72165", "STATUS": "CLOSED", "ReportedDate": "2022-09-30T21:50:29Z", "Address": "1120 SCALEYBARK RD", "PRIORITY": "5", "Blocked": "No, On Roadside or Sidewalk", "UtilityLines": "NO", "DATETIMECLOSED": "2022-10-01T08:11:08Z" }, "geometry": { "type": "Point", "coordinates": [ -80.860518252836272, 35.173358061134572 ] } },
{ "type": "Feature", "properties": { "OBJECTID": 131, "ProblemType": "Storm Cleanup", "SRNumber": "72166", "STATUS": "CLOSED", "ReportedDate": "2022-09-30T22:09:51Z", "Address": "8830 CASTLEBAY DR", "PRIORITY": "1", "Blocked": "No, On Roadside or Sidewalk", "UtilityLines": "NO", "DATETIMECLOSED": "2022-10-01T14:08:50Z" }, "geometry": { "type": "Point", "coordinates": [ -80.815767977982986, 35.028921057238279 ] } },
{ "type": "Feature", "properties": { "OBJECTID": 132, "ProblemType": "Storm Cleanup", "SRNumber": "72167", "STATUS": "CLOSED", "ReportedDate": "2022-09-30T22:11:34Z", "Address": "5329 SEACROFT RD", "PRIORITY": "3", "Blocked": "No, On Roadside or Sidewalk", "UtilityLines": "YES", "DATETIMECLOSED": "2022-10-03T10:28:18Z" }, "geometry": { "type": "Point", "coordinates": [ -80.867569672027884, 35.160038830306043 ] } },
{ "type": "Feature", "properties": { "OBJECTID": 133, "ProblemType": "Storm Cleanup", "SRNumber": "72168", "STATUS": "CLOSED", "ReportedDate": "2022-09-30T22:16:55Z", "Address": "1508 MCALLISTER DR", "PRIORITY": "5", "Blocked": "", "UtilityLines": "", "DATETIMECLOSED": "2022-10-01T08:40:24Z" }, "geometry": { "type": "Point", "coordinates": [ -80.864773712080904, 35.281523047653231 ] } },
{ "type": "Feature", "properties": { "OBJECTID": 134, "ProblemType": "Storm Cleanup", "SRNumber": "72170", "STATUS": "Planned", "ReportedDate": "2022-09-30T22:30:09Z", "Address": "5815 REBEL DR", "PRIORITY": "1", "Blocked": "No, On Roadside or Sidewalk", "UtilityLines": "", "DATETIMECLOSED": null }, "geometry": { "type": "Point", "coordinates": [ -80.83271067698827, 35.13267851249217 ] } },
{ "type": "Feature", "properties": { "OBJECTID": 135, "ProblemType": "Storm Cleanup", "SRNumber": "72171", "STATUS": "CLOSED", "ReportedDate": "2022-09-30T22:41:02Z", "Address": "11416 GLENN ABBEY WY", "PRIORITY": "3", "Blocked": "Full No Passage", "UtilityLines": "NO", "DATETIMECLOSED": "2022-10-01T15:15:53Z" }, "geometry": { "type": "Point", "coordinates": [ -80.774450342855829, 35.048778427293165 ] } },
{ "type": "Feature", "properties": { "OBJECTID": 136, "ProblemType": "Storm Cleanup", "SRNumber": "72172", "STATUS": "CLOSED", "ReportedDate": "2022-09-30T23:29:06Z", "Address": "TEANECK PL & HOLLY OAK LN, ,  28215", "PRIORITY": "1", "Blocked": "No, On Roadside or Sidewalk", "UtilityLines": "NO", "DATETIMECLOSED": "2022-10-01T14:08:01Z" }, "geometry": { "type": "Point", "coordinates": [ -80.721327095620509, 35.232198719441548 ] } },
{ "type": "Feature", "properties": { "OBJECTID": 137, "ProblemType": "Storm Cleanup", "SRNumber": "72173", "STATUS": "Planned", "ReportedDate": "2022-10-01T00:28:07Z", "Address": "4700 GAYNELLE DR", "PRIORITY": "3", "Blocked": "Partial But Passible", "UtilityLines": "NO", "DATETIMECLOSED": null }, "geometry": { "type": "Point", "coordinates": [ -80.734880663946001, 35.223801823979073 ] } },
{ "type": "Feature", "properties": { "OBJECTID": 138, "ProblemType": "Storm Cleanup", "SRNumber": "72174", "STATUS": "CLOSED", "ReportedDate": "2022-10-01T00:28:11Z", "Address": "4714 GAYNELLE DR", "PRIORITY": "5", "Blocked": "Partial But Passible", "UtilityLines": "NO", "DATETIMECLOSED": "2022-10-01T05:28:23Z" }, "geometry": { "type": "Point", "coordinates": [ -80.734880663946001, 35.223801823979073 ] } },
{ "type": "Feature", "properties": { "OBJECTID": 139, "ProblemType": "Storm Cleanup", "SRNumber": "72175", "STATUS": "CLOSED", "ReportedDate": "2022-10-01T02:19:53Z", "Address": "4213 RUTGERS AV, ,  28213", "PRIORITY": "5", "Blocked": "Full No Passage", "UtilityLines": "NO", "DATETIMECLOSED": "2022-10-06T12:57:58Z" }, "geometry": { "type": "Point", "coordinates": [ -80.794874664984079, 35.267168799779078 ] } },
{ "type": "Feature", "properties": { "OBJECTID": 140, "ProblemType": "Storm Cleanup", "SRNumber": "72176", "STATUS": "CLOSED", "ReportedDate": "2022-10-01T02:21:08Z", "Address": "601 W SUGAR CREEK RD", "PRIORITY": "5", "Blocked": "Partial No Passage", "UtilityLines": "YES", "DATETIMECLOSED": "2022-10-01T05:27:17Z" }, "geometry": { "type": "Point", "coordinates": [ -80.795165187017972, 35.267389364985291 ] } },
{ "type": "Feature", "properties": { "OBJECTID": 141, "ProblemType": "Storm Cleanup", "SRNumber": "72177", "STATUS": "CLOSED", "ReportedDate": "2022-10-01T06:43:46Z", "Address": "1800 MARIBEL AV", "PRIORITY": "5", "Blocked": "Full No Passage", "UtilityLines": "YES", "DATETIMECLOSED": "2022-10-01T06:44:49Z" }, "geometry": { "type": "Point", "coordinates": [ -80.857107911220183, 35.261057390053679 ] } },
{ "type": "Feature", "properties": { "OBJECTID": 142, "ProblemType": "Storm Cleanup", "SRNumber": "72178", "STATUS": "Planned", "ReportedDate": "2022-10-01T07:43:38Z", "Address": "CHOYCE AV & NATIONS DR, ,  28217", "PRIORITY": "5", "Blocked": "Full No Passage", "UtilityLines": "YES", "DATETIMECLOSED": null }, "geometry": { "type": "Point", "coordinates": [ -80.901661345763998, 35.150038781141511 ] } },
{ "type": "Feature", "properties": { "OBJECTID": 143, "ProblemType": "Storm Cleanup", "SRNumber": "72179", "STATUS": "Planned", "ReportedDate": "2022-10-01T07:56:43Z", "Address": "BELGRAVE PL & BERKELEY AV, ,  28203", "PRIORITY": "5", "Blocked": "Full No Passage", "UtilityLines": "NO", "DATETIMECLOSED": null }, "geometry": { "type": "Point", "coordinates": [ -80.84219970982177, 35.209201167213102 ] } },
{ "type": "Feature", "properties": { "OBJECTID": 144, "ProblemType": "Storm Cleanup", "SRNumber": "72180", "STATUS": "CLOSED", "ReportedDate": "2022-10-01T08:08:04Z", "Address": "6336 TEANECK PL", "PRIORITY": "5", "Blocked": "Partial But Passible", "UtilityLines": "NO", "DATETIMECLOSED": "2022-10-01T09:26:25Z" }, "geometry": { "type": "Point", "coordinates": [ -80.721223897784256, 35.231897654277503 ] } },
{ "type": "Feature", "properties": { "OBJECTID": 145, "ProblemType": "Storm Cleanup", "SRNumber": "72182", "STATUS": "CLOSED", "ReportedDate": "2022-10-01T08:15:09Z", "Address": "4500 TOWN & COUNTRY DR", "PRIORITY": "5", "Blocked": "", "UtilityLines": "", "DATETIMECLOSED": "2022-10-01T12:35:33Z" }, "geometry": { "type": "Point", "coordinates": [ -80.809594072804245, 35.136412675278947 ] } },
{ "type": "Feature", "properties": { "OBJECTID": 146, "ProblemType": "Storm Cleanup", "SRNumber": "72183", "STATUS": "CLOSED", "ReportedDate": "2022-10-01T08:29:13Z", "Address": "7119 BADENOCH CT", "PRIORITY": "5", "Blocked": "Full No Passage", "UtilityLines": "NO", "DATETIMECLOSED": "2022-10-01T12:35:58Z" }, "geometry": { "type": "Point", "coordinates": [ -80.917660350026537, 35.155962110636629 ] } },
{ "type": "Feature", "properties": { "OBJECTID": 147, "ProblemType": "Storm Cleanup", "SRNumber": "72184", "STATUS": "CLOSED", "ReportedDate": "2022-10-01T08:32:15Z", "Address": "8628 DOE RUN RD", "PRIORITY": "5", "Blocked": "Full No Passage", "UtilityLines": "", "DATETIMECLOSED": "2022-10-01T08:41:57Z" }, "geometry": { "type": "Point", "coordinates": [ -80.807651306358352, 35.046667081395299 ] } },
{ "type": "Feature", "properties": { "OBJECTID": 148, "ProblemType": "Storm Cleanup", "SRNumber": "72185", "STATUS": "CLOSED", "ReportedDate": "2022-10-01T08:39:24Z", "Address": "8830 CASTLEBAY DR", "PRIORITY": "5", "Blocked": "Partial But Passible", "UtilityLines": "NO", "DATETIMECLOSED": "2022-10-01T08:40:54Z" }, "geometry": { "type": "Point", "coordinates": [ -80.815767977982986, 35.028921057238279 ] } },
{ "type": "Feature", "properties": { "OBJECTID": 149, "ProblemType": "Storm Cleanup", "SRNumber": "72186", "STATUS": "CLOSED", "ReportedDate": "2022-10-01T08:40:08Z", "Address": "7616 WATERCREST RD", "PRIORITY": "3", "Blocked": "Partial But Passible", "UtilityLines": "NO", "DATETIMECLOSED": "2022-10-01T15:42:21Z" }, "geometry": { "type": "Point", "coordinates": [ -80.865741069901318, 35.128833914583133 ] } },
{ "type": "Feature", "properties": { "OBJECTID": 150, "ProblemType": "Storm Cleanup", "SRNumber": "72188", "STATUS": "CLOSED", "ReportedDate": "2022-10-01T08:55:55Z", "Address": "6336 TEANECK PL", "PRIORITY": "5", "Blocked": "Partial But Passible", "UtilityLines": "NO", "DATETIMECLOSED": "2022-10-01T08:57:45Z" }, "geometry": { "type": "Point", "coordinates": [ -80.721223897784256, 35.231897654277503 ] } },
{ "type": "Feature", "properties": { "OBJECTID": 151, "ProblemType": "Storm Cleanup", "SRNumber": "72189", "STATUS": "CLOSED", "ReportedDate": "2022-10-01T08:55:58Z", "Address": "6336 TEANECK PL", "PRIORITY": "5", "Blocked": "Partial But Passible", "UtilityLines": "NO", "DATETIMECLOSED": "2022-10-01T08:57:27Z" }, "geometry": { "type": "Point", "coordinates": [ -80.721223897784256, 35.231897654277503 ] } },
{ "type": "Feature", "properties": { "OBJECTID": 152, "ProblemType": "Storm Cleanup", "SRNumber": "72190", "STATUS": "CLOSED", "ReportedDate": "2022-10-01T08:58:30Z", "Address": "7000 ROLLINGRIDGE DR", "PRIORITY": "1", "Blocked": "", "UtilityLines": "NO", "DATETIMECLOSED": "2022-10-01T09:01:21Z" }, "geometry": { "type": "Point", "coordinates": [ -80.765989881528526, 35.154786047286301 ] } },
{ "type": "Feature", "properties": { "OBJECTID": 153, "ProblemType": "Storm Cleanup", "SRNumber": "72191", "STATUS": "Planned", "ReportedDate": "2022-10-01T09:17:56Z", "Address": "1410 PINE TREE DR", "PRIORITY": "3", "Blocked": "Partial But Passible", "UtilityLines": "NO", "DATETIMECLOSED": null }, "geometry": { "type": "Point", "coordinates": [ -80.784087977011353, 35.146319783376164 ] } },
{ "type": "Feature", "properties": { "OBJECTID": 154, "ProblemType": "Storm Cleanup", "SRNumber": "72192", "STATUS": "CLOSED", "ReportedDate": "2022-10-01T09:18:33Z", "Address": "CANDIS DR & OLINE PL, ,  28212", "PRIORITY": "1", "Blocked": "", "UtilityLines": "NO", "DATETIMECLOSED": "2022-10-01T15:02:40Z" }, "geometry": { "type": "Point", "coordinates": [ -80.752522433602905, 35.165049042122504 ] } },
{ "type": "Feature", "properties": { "OBJECTID": 155, "ProblemType": "Storm Cleanup", "SRNumber": "72193", "STATUS": "Planned", "ReportedDate": "2022-10-01T09:33:06Z", "Address": "221 CIRCLE AV", "PRIORITY": "5", "Blocked": "Partial But Passible", "UtilityLines": "NO", "DATETIMECLOSED": null }, "geometry": { "type": "Point", "coordinates": [ -80.822029030216115, 35.205880549022986 ] } },
{ "type": "Feature", "properties": { "OBJECTID": 156, "ProblemType": "Storm Cleanup", "SRNumber": "72195", "STATUS": "Pend", "ReportedDate": "2022-10-01T09:50:06Z", "Address": "5916 PAW CREEK RD", "PRIORITY": "3", "Blocked": "", "UtilityLines": "", "DATETIMECLOSED": null }, "geometry": { "type": "Point", "coordinates": [ -80.933203258047442, 35.260049259852707 ] } },
{ "type": "Feature", "properties": { "OBJECTID": 157, "ProblemType": "Storm Cleanup", "SRNumber": "72196", "STATUS": "CLOSED", "ReportedDate": "2022-10-01T09:51:54Z", "Address": "4204 DAVIS DR", "PRIORITY": "3", "Blocked": "Partial But Passible", "UtilityLines": "NO", "DATETIMECLOSED": "2022-10-01T15:15:28Z" }, "geometry": { "type": "Point", "coordinates": [ -80.735321111961653, 35.069678155321057 ] } },
{ "type": "Feature", "properties": { "OBJECTID": 158, "ProblemType": "Storm Cleanup", "SRNumber": "72197", "STATUS": "CLOSED", "ReportedDate": "2022-10-01T09:55:09Z", "Address": "334 N HOSKINS RD", "PRIORITY": "5", "Blocked": "Partial But Passible", "UtilityLines": "YES", "DATETIMECLOSED": "2022-10-04T14:38:32Z" }, "geometry": { "type": "Point", "coordinates": [ -80.878892443733051, 35.267458664602586 ] } },
{ "type": "Feature", "properties": { "OBJECTID": 159, "ProblemType": "Storm Cleanup", "SRNumber": "72198", "STATUS": "CLOSED", "ReportedDate": "2022-10-01T09:56:59Z", "Address": "6614 CHESTNUT OAK LN", "PRIORITY": "3", "Blocked": "Partial But Passible", "UtilityLines": "", "DATETIMECLOSED": "2022-10-01T14:07:43Z" }, "geometry": { "type": "Point", "coordinates": [ -80.721173876466267, 35.230837122940969 ] } },
{ "type": "Feature", "properties": { "OBJECTID": 160, "ProblemType": "Storm Cleanup", "SRNumber": "72199", "STATUS": "CLOSED", "ReportedDate": "2022-10-01T10:00:27Z", "Address": "1507 MATHESON AV", "PRIORITY": "1", "Blocked": "Partial But Passible", "UtilityLines": "NO", "DATETIMECLOSED": "2022-10-03T10:37:18Z" }, "geometry": { "type": "Point", "coordinates": [ -80.797538469758337, 35.23632248910414 ] } },
{ "type": "Feature", "properties": { "OBJECTID": 161, "ProblemType": "Storm Cleanup", "SRNumber": "72200", "STATUS": "Planned", "ReportedDate": "2022-10-01T10:04:17Z", "Address": "8143 CHRISBRY LN", "PRIORITY": "3", "Blocked": "Partial But Passible", "UtilityLines": "NO", "DATETIMECLOSED": null }, "geometry": { "type": "Point", "coordinates": [ -80.72349335389157, 35.250192289637639 ] } },
{ "type": "Feature", "properties": { "OBJECTID": 162, "ProblemType": "Storm Cleanup", "SRNumber": "72201", "STATUS": "CLOSED", "ReportedDate": "2022-10-01T10:19:43Z", "Address": "4321 SATTERWYTHE LN", "PRIORITY": "1", "Blocked": "", "UtilityLines": "NO", "DATETIMECLOSED": "2022-10-01T11:06:04Z" }, "geometry": { "type": "Point", "coordinates": [ -80.683296257581304, 35.285029030715357 ] } },
{ "type": "Feature", "properties": { "OBJECTID": 163, "ProblemType": "Storm Cleanup", "SRNumber": "72202", "STATUS": "CLOSED", "ReportedDate": "2022-10-01T10:35:06Z", "Address": "6331 FOREST WAY DR", "PRIORITY": "1", "Blocked": "", "UtilityLines": "", "DATETIMECLOSED": "2022-10-01T15:02:54Z" }, "geometry": { "type": "Point", "coordinates": [ -80.75901514309443, 35.179689607240334 ] } },
{ "type": "Feature", "properties": { "OBJECTID": 164, "ProblemType": "Storm Cleanup", "SRNumber": "72203", "STATUS": "Planned", "ReportedDate": "2022-10-01T10:45:08Z", "Address": "5032 BUCKINGHAM DR", "PRIORITY": "5", "Blocked": "Full No Passage", "UtilityLines": "", "DATETIMECLOSED": null }, "geometry": { "type": "Point", "coordinates": [ -80.850502326419928, 35.16104336000658 ] } },
{ "type": "Feature", "properties": { "OBJECTID": 165, "ProblemType": "Storm Cleanup", "SRNumber": "72205", "STATUS": "CLOSED", "ReportedDate": "2022-10-01T11:10:08Z", "Address": "11420 HARROWFIELD RD", "PRIORITY": "1", "Blocked": "No, On Roadside or Sidewalk", "UtilityLines": "", "DATETIMECLOSED": "2022-10-05T10:43:20Z" }, "geometry": { "type": "Point", "coordinates": [ -80.848331820081242, 35.077718544626947 ] } },
{ "type": "Feature", "properties": { "OBJECTID": 166, "ProblemType": "Storm Cleanup", "SRNumber": "72206", "STATUS": "CLOSED", "ReportedDate": "2022-10-01T11:24:55Z", "Address": "11416 GLENN ABBEY WY", "PRIORITY": "1", "Blocked": "", "UtilityLines": "NO", "DATETIMECLOSED": "2022-10-01T12:34:41Z" }, "geometry": { "type": "Point", "coordinates": [ -80.774450342855829, 35.048778427293165 ] } },
{ "type": "Feature", "properties": { "OBJECTID": 167, "ProblemType": "Storm Cleanup", "SRNumber": "72207", "STATUS": "CLOSED", "ReportedDate": "2022-10-01T11:38:01Z", "Address": "4718 HARDWICK RD", "PRIORITY": "1", "Blocked": "No, On Roadside or Sidewalk", "UtilityLines": "NO", "DATETIMECLOSED": "2022-10-03T12:28:38Z" }, "geometry": { "type": "Point", "coordinates": [ -80.794419975791172, 35.174904157619594 ] } },
{ "type": "Feature", "properties": { "OBJECTID": 168, "ProblemType": "Storm Cleanup", "SRNumber": "72208", "STATUS": "CLOSED", "ReportedDate": "2022-10-01T12:01:31Z", "Address": "BELGRAVE PL/BERKELEY AV CHAR", "PRIORITY": "5", "Blocked": "Full No Passage", "UtilityLines": "NO", "DATETIMECLOSED": "2022-10-01T12:38:25Z", "Shape": null }, "geometry": null },
{ "type": "Feature", "properties": { "OBJECTID": 169, "ProblemType": "Storm Cleanup", "SRNumber": "72209", "STATUS": "CLOSED", "ReportedDate": "2022-10-01T12:19:06Z", "Address": "SPRUCE KNOB LN & SUGAR HOLLOW DR, ,  28214", "PRIORITY": "5", "Blocked": "Partial But Passible", "UtilityLines": "NO", "DATETIMECLOSED": "2022-10-02T10:25:07Z" }, "geometry": { "type": "Point", "coordinates": [ -80.969324566852748, 35.303006463231107 ] } },
{ "type": "Feature", "properties": { "OBJECTID": 170, "ProblemType": "Storm Cleanup", "SRNumber": "72210", "STATUS": "CLOSED", "ReportedDate": "2022-10-01T13:07:06Z", "Address": "1300 SUGAR HOLLOW DR", "PRIORITY": "5", "Blocked": "", "UtilityLines": "NO", "DATETIMECLOSED": "2022-10-01T13:11:42Z" }, "geometry": { "type": "Point", "coordinates": [ -80.967733429662943, 35.302584833384735 ] } },
{ "type": "Feature", "properties": { "OBJECTID": 171, "ProblemType": "Storm Cleanup", "SRNumber": "72211", "STATUS": "CLOSED", "ReportedDate": "2022-10-01T13:07:09Z", "Address": "1300 SUGAR HOLLOW DR", "PRIORITY": "5", "Blocked": "", "UtilityLines": "NO", "DATETIMECLOSED": "2022-10-01T13:11:12Z" }, "geometry": { "type": "Point", "coordinates": [ -80.967733429662943, 35.302584833384735 ] } },
{ "type": "Feature", "properties": { "OBJECTID": 172, "ProblemType": "Storm Cleanup", "SRNumber": "72213", "STATUS": "CLOSED", "ReportedDate": "2022-10-01T13:48:26Z", "Address": "831 MILLBROOK RD", "PRIORITY": "5", "Blocked": "Partial But Passible", "UtilityLines": "NO", "DATETIMECLOSED": "2022-10-01T13:53:40Z" }, "geometry": { "type": "Point", "coordinates": [ -80.793121710825389, 35.18770631415525 ] } },
{ "type": "Feature", "properties": { "OBJECTID": 173, "ProblemType": "Storm Cleanup", "SRNumber": "72215", "STATUS": "CLOSED", "ReportedDate": "2022-10-01T16:55:08Z", "Address": "4617 ROCK STREAM DR", "PRIORITY": "1", "Blocked": "", "UtilityLines": "", "DATETIMECLOSED": "2022-10-02T08:36:38Z" }, "geometry": { "type": "Point", "coordinates": [ -80.776822383167314, 35.376051963917725 ] } },
{ "type": "Feature", "properties": { "OBJECTID": 174, "ProblemType": "Storm Cleanup", "SRNumber": "72217", "STATUS": "CLOSED", "ReportedDate": "2022-10-01T18:04:26Z", "Address": "ROBBIE CR & SHOPTON RD, ,  28278", "PRIORITY": "5", "Blocked": "Full No Passage", "UtilityLines": "NO", "DATETIMECLOSED": "2022-10-04T06:43:43Z" }, "geometry": { "type": "Point", "coordinates": [ -80.96420513180513, 35.172687341848146 ] } },
{ "type": "Feature", "properties": { "OBJECTID": 175, "ProblemType": "Storm Cleanup", "SRNumber": "72218", "STATUS": "CLOSED", "ReportedDate": "2022-10-01T19:34:52Z", "Address": "ROCKWOOD RD & CRANDON DR, ,  28216", "PRIORITY": "5", "Blocked": "Partial No Passage", "UtilityLines": "NO", "DATETIMECLOSED": "2022-10-02T09:04:58Z" }, "geometry": { "type": "Point", "coordinates": [ -80.880290161723764, 35.297416166777197 ] } },
{ "type": "Feature", "properties": { "OBJECTID": 176, "ProblemType": "Storm Cleanup", "SRNumber": "72220", "STATUS": "CLOSED", "ReportedDate": "2022-10-01T20:53:54Z", "Address": "SHELLEY AV & RIDGE RD, ,  28269", "PRIORITY": "5", "Blocked": "Partial But Passible", "UtilityLines": "NO", "DATETIMECLOSED": "2022-10-03T06:05:57Z" }, "geometry": { "type": "Point", "coordinates": [ -80.7638156991881, 35.373717433826883 ] } },
{ "type": "Feature", "properties": { "OBJECTID": 177, "ProblemType": "Storm Cleanup", "SRNumber": "72221", "STATUS": "CLOSED", "ReportedDate": "2022-10-02T07:58:01Z", "Address": "420 WESLEY HEIGHTS WY", "PRIORITY": "1", "Blocked": "No, On Roadside or Sidewalk", "UtilityLines": "NO", "DATETIMECLOSED": "2022-10-03T11:32:13Z" }, "geometry": { "type": "Point", "coordinates": [ -80.864223417080012, 35.237011655251436 ] } },
{ "type": "Feature", "properties": { "OBJECTID": 178, "ProblemType": "Storm Cleanup", "SRNumber": "72223", "STATUS": "CLOSED", "ReportedDate": "2022-10-02T10:01:58Z", "Address": "ALBEMARLE RD & LAWYERS RD, ,  28227", "PRIORITY": "1", "Blocked": "No, On Roadside or Sidewalk", "UtilityLines": "", "DATETIMECLOSED": "2022-10-05T10:41:32Z" }, "geometry": { "type": "Point", "coordinates": [ -80.723975261211962, 35.203111203232027 ] } },
{ "type": "Feature", "properties": { "OBJECTID": 179, "ProblemType": "Storm Cleanup", "SRNumber": "72224", "STATUS": "CLOSED", "ReportedDate": "2022-10-02T11:11:35Z", "Address": "3026 SILVER BIRCH DR", "PRIORITY": "1", "Blocked": "No, On Roadside or Sidewalk", "UtilityLines": "NO", "DATETIMECLOSED": "2022-10-06T12:55:34Z" }, "geometry": { "type": "Point", "coordinates": [ -80.774192539939918, 35.330882359578652 ] } },
{ "type": "Feature", "properties": { "OBJECTID": 180, "ProblemType": "Storm Cleanup", "SRNumber": "72225", "STATUS": "CLOSED", "ReportedDate": "2022-10-02T12:29:37Z", "Address": "MAYERLING DR & GLENMONT DR, ,  28227", "PRIORITY": "5", "Blocked": "Partial But Passible", "UtilityLines": "NO", "DATETIMECLOSED": "2022-10-03T07:21:27Z" }, "geometry": { "type": "Point", "coordinates": [ -80.702745265920456, 35.187693613154245 ] } },
{ "type": "Feature", "properties": { "OBJECTID": 181, "ProblemType": "Storm Cleanup", "SRNumber": "72226", "STATUS": "CLOSED", "ReportedDate": "2022-10-02T14:30:06Z", "Address": "5601 LANCELOT DR", "PRIORITY": "1", "Blocked": "", "UtilityLines": "", "DATETIMECLOSED": "2022-10-03T13:24:09Z" }, "geometry": { "type": "Point", "coordinates": [ -80.757515720093195, 35.083155597564868 ] } },
{ "type": "Feature", "properties": { "OBJECTID": 182, "ProblemType": "Storm Cleanup", "SRNumber": "72227", "STATUS": "CLOSED", "ReportedDate": "2022-10-02T14:45:09Z", "Address": "5601 LANCELOT DR", "PRIORITY": "1", "Blocked": "", "UtilityLines": "", "DATETIMECLOSED": "2022-10-03T13:24:26Z" }, "geometry": { "type": "Point", "coordinates": [ -80.757515720093195, 35.083155597564868 ] } },
{ "type": "Feature", "properties": { "OBJECTID": 183, "ProblemType": "Storm Cleanup", "SRNumber": "72229", "STATUS": "CLOSED", "ReportedDate": "2022-10-02T18:35:09Z", "Address": "3900 TENNESSEE AV", "PRIORITY": "5", "Blocked": "", "UtilityLines": "", "DATETIMECLOSED": "2022-10-04T09:46:57Z" }, "geometry": { "type": "Point", "coordinates": [ -80.877167612976663, 35.266735785861066 ] } },
{ "type": "Feature", "properties": { "OBJECTID": 184, "ProblemType": "Storm Cleanup", "SRNumber": "72230", "STATUS": "CLOSED", "ReportedDate": "2022-10-02T18:56:37Z", "Address": "3045 IDLEWOOD CR", "PRIORITY": "5", "Blocked": "No, On Roadside or Sidewalk", "UtilityLines": "NO", "DATETIMECLOSED": "2022-10-05T12:52:09Z" }, "geometry": { "type": "Point", "coordinates": [ -80.849204734320281, 35.188517409058534 ] } },
{ "type": "Feature", "properties": { "OBJECTID": 185, "ProblemType": "Storm Cleanup", "SRNumber": "72232", "STATUS": "CLOSED", "ReportedDate": "2022-10-03T08:03:12Z", "Address": "4007 CRAVEN HILL DR", "PRIORITY": "5", "Blocked": "", "UtilityLines": "", "DATETIMECLOSED": "2022-10-03T11:13:44Z" }, "geometry": { "type": "Point", "coordinates": [ -80.862581769719796, 35.323927069155829 ] } },
{ "type": "Feature", "properties": { "OBJECTID": 186, "ProblemType": "Storm Cleanup", "SRNumber": "72234", "STATUS": "CLOSED", "ReportedDate": "2022-10-03T08:06:21Z", "Address": "2854 MAYFLOWER RD", "PRIORITY": "5", "Blocked": "No, On Roadside or Sidewalk", "UtilityLines": "", "DATETIMECLOSED": "2022-10-03T13:54:26Z" }, "geometry": { "type": "Point", "coordinates": [ -80.883727742927974, 35.211823042540942 ] } },
{ "type": "Feature", "properties": { "OBJECTID": 187, "ProblemType": "Storm Cleanup", "SRNumber": "72235", "STATUS": "CLOSED", "ReportedDate": "2022-10-03T08:07:38Z", "Address": "6507 MISTY MORNING DR", "PRIORITY": "1", "Blocked": "No, On Roadside or Sidewalk", "UtilityLines": "", "DATETIMECLOSED": "2022-10-03T11:00:51Z" }, "geometry": { "type": "Point", "coordinates": [ -80.746906604802675, 35.193075180520715 ] } },
{ "type": "Feature", "properties": { "OBJECTID": 188, "ProblemType": "Storm Cleanup", "SRNumber": "72239", "STATUS": "CLOSED", "ReportedDate": "2022-10-03T09:25:07Z", "Address": "8770 J M KEYNES DR", "PRIORITY": "1", "Blocked": "No, On Roadside or Sidewalk", "UtilityLines": "", "DATETIMECLOSED": "2022-10-06T12:57:24Z" }, "geometry": { "type": "Point", "coordinates": [ -80.749340516154049, 35.307646320477836 ] } },
{ "type": "Feature", "properties": { "OBJECTID": 189, "ProblemType": "Storm Cleanup", "SRNumber": "72240", "STATUS": "CLOSED", "ReportedDate": "2022-10-03T09:35:09Z", "Address": "11618 HARROWFIELD RD", "PRIORITY": "3", "Blocked": "Partial But Passible", "UtilityLines": "", "DATETIMECLOSED": "2022-10-05T10:42:08Z" }, "geometry": { "type": "Point", "coordinates": [ -80.846655751045517, 35.076040306454082 ] } },
{ "type": "Feature", "properties": { "OBJECTID": 190, "ProblemType": "Storm Cleanup", "SRNumber": "72241", "STATUS": "CLOSED", "ReportedDate": "2022-10-03T09:35:26Z", "Address": "7000 FOLGER DR", "PRIORITY": "5", "Blocked": "No, On Roadside or Sidewalk", "UtilityLines": "NO", "DATETIMECLOSED": "2022-10-05T10:42:27Z" }, "geometry": { "type": "Point", "coordinates": [ -80.779721818895922, 35.143259517956295 ] } },
{ "type": "Feature", "properties": { "OBJECTID": 191, "ProblemType": "Storm Cleanup", "SRNumber": "72246", "STATUS": "CLOSED", "ReportedDate": "2022-10-03T10:26:53Z", "Address": "W TRADE ST & S GRAHAM ST, ,  28202", "PRIORITY": "3", "Blocked": "No, On Roadside or Sidewalk", "UtilityLines": "NO", "DATETIMECLOSED": "2022-10-03T13:55:19Z" }, "geometry": { "type": "Point", "coordinates": [ -80.847023839789415, 35.230597722863735 ] } },
{ "type": "Feature", "properties": { "OBJECTID": 192, "ProblemType": "Storm Cleanup", "SRNumber": "72247", "STATUS": "CLOSED", "ReportedDate": "2022-10-03T10:56:05Z", "Address": "6413 PINEY PATH RD", "PRIORITY": "5", "Blocked": "No, On Roadside or Sidewalk", "UtilityLines": "", "DATETIMECLOSED": "2022-10-05T10:41:16Z" }, "geometry": { "type": "Point", "coordinates": [ -80.747800078951528, 35.193486151508218 ] } },
{ "type": "Feature", "properties": { "OBJECTID": 193, "ProblemType": "Storm Cleanup", "SRNumber": "72248", "STATUS": "CLOSED", "ReportedDate": "2022-10-03T11:16:52Z", "Address": "1709 SPRINGDALE AV", "PRIORITY": "1", "Blocked": "No, On Roadside or Sidewalk", "UtilityLines": "", "DATETIMECLOSED": "2022-10-04T09:48:10Z" }, "geometry": { "type": "Point", "coordinates": [ -80.850975928695902, 35.208311170539005 ] } },
{ "type": "Feature", "properties": { "OBJECTID": 194, "ProblemType": "Storm Cleanup", "SRNumber": "72249", "STATUS": "CLOSED", "ReportedDate": "2022-10-03T11:27:37Z", "Address": "N IRWIN AV & W TRADE ST, ,  28202", "PRIORITY": "1", "Blocked": "No, On Roadside or Sidewalk", "UtilityLines": "", "DATETIMECLOSED": "2022-10-04T09:47:52Z" }, "geometry": { "type": "Point", "coordinates": [ -80.852461964683116, 35.234834396675943 ] } },
{ "type": "Feature", "properties": { "OBJECTID": 195, "ProblemType": "Storm Cleanup", "SRNumber": "72250", "STATUS": "CLOSED", "ReportedDate": "2022-10-03T11:32:48Z", "Address": "5601 LANCELOT DR", "PRIORITY": "3", "Blocked": "No, On Roadside or Sidewalk", "UtilityLines": "NO", "DATETIMECLOSED": "2022-10-06T12:53:06Z" }, "geometry": { "type": "Point", "coordinates": [ -80.756906404760471, 35.083162579154852 ] } },
{ "type": "Feature", "properties": { "OBJECTID": 196, "ProblemType": "Storm Cleanup", "SRNumber": "72251", "STATUS": "CLOSED", "ReportedDate": "2022-10-03T12:04:56Z", "Address": "N ALEXANDER ST & E TRADE ST, ,  28202", "PRIORITY": "1", "Blocked": "No, On Roadside or Sidewalk", "UtilityLines": "NO", "DATETIMECLOSED": "2022-10-04T09:47:34Z" }, "geometry": { "type": "Point", "coordinates": [ -80.837072937436929, 35.222104513103197 ] } },
{ "type": "Feature", "properties": { "OBJECTID": 197, "ProblemType": "Storm Cleanup", "SRNumber": "72253", "STATUS": "CLOSED", "ReportedDate": "2022-10-03T12:19:19Z", "Address": "N TORRENCE ST & ELIZABETH AV, ,  28204", "PRIORITY": "3", "Blocked": "No, On Roadside or Sidewalk", "UtilityLines": "", "DATETIMECLOSED": "2022-10-06T10:16:04Z" }, "geometry": { "type": "Point", "coordinates": [ -80.827913784009681, 35.214765582257371 ] } },
{ "type": "Feature", "properties": { "OBJECTID": 198, "ProblemType": "Storm Cleanup", "SRNumber": "72255", "STATUS": "CLOSED", "ReportedDate": "2022-10-03T13:20:50Z", "Address": "4720 BEATTIES FORD RD", "PRIORITY": "5", "Blocked": "", "UtilityLines": "", "DATETIMECLOSED": "2022-10-04T10:14:11Z" }, "geometry": { "type": "Point", "coordinates": [ -80.855483266773433, 35.299547284209268 ] } },
{ "type": "Feature", "properties": { "OBJECTID": 199, "ProblemType": "Storm Cleanup", "SRNumber": "72256", "STATUS": "CLOSED", "ReportedDate": "2022-10-03T13:27:06Z", "Address": "912 HENLEY PL", "PRIORITY": "3", "Blocked": "No, On Roadside or Sidewalk", "UtilityLines": "NO", "DATETIMECLOSED": "2022-10-05T12:52:27Z" }, "geometry": { "type": "Point", "coordinates": [ -80.833670033972979, 35.205825991028426 ] } },
{ "type": "Feature", "properties": { "OBJECTID": 200, "ProblemType": "Storm Cleanup", "SRNumber": "72257", "STATUS": "CLOSED", "ReportedDate": "2022-10-03T13:37:13Z", "Address": "BINGHAM DR", "PRIORITY": "1", "Blocked": "No, On Roadside or Sidewalk", "UtilityLines": "", "DATETIMECLOSED": "2022-10-05T08:33:18Z" }, "geometry": { "type": "Point", "coordinates": [ -80.783350933112914, 35.257985433570774 ] } },
{ "type": "Feature", "properties": { "OBJECTID": 201, "ProblemType": "Storm Cleanup", "SRNumber": "72260", "STATUS": "CLOSED", "ReportedDate": "2022-10-04T09:00:07Z", "Address": "3409 OAK TREE TL", "PRIORITY": "1", "Blocked": "", "UtilityLines": "", "DATETIMECLOSED": "2022-10-04T10:30:53Z" }, "geometry": { "type": "Point", "coordinates": [ -80.718654795146563, 35.158952960771487 ] } },
{ "type": "Feature", "properties": { "OBJECTID": 202, "ProblemType": "Storm Cleanup", "SRNumber": "72261", "STATUS": "CLOSED", "ReportedDate": "2022-10-04T09:07:05Z", "Address": "806 E TREMONT AV", "PRIORITY": "5", "Blocked": "", "UtilityLines": "", "DATETIMECLOSED": "2022-10-05T05:32:18Z" }, "geometry": { "type": "Point", "coordinates": [ -80.853008606864222, 35.204523032106863 ] } },
{ "type": "Feature", "properties": { "OBJECTID": 203, "ProblemType": "Storm Cleanup", "SRNumber": "72262", "STATUS": "CLOSED", "ReportedDate": "2022-10-04T09:15:09Z", "Address": "3351 SERVICE ST", "PRIORITY": "5", "Blocked": "No, On Roadside or Sidewalk", "UtilityLines": "", "DATETIMECLOSED": "2022-10-06T12:53:34Z" }, "geometry": { "type": "Point", "coordinates": [ -80.820895250375102, 35.265701894177703 ] } },
{ "type": "Feature", "properties": { "OBJECTID": 204, "ProblemType": "Storm Cleanup", "SRNumber": "72265", "STATUS": "CLOSED", "ReportedDate": "2022-10-04T10:52:57Z", "Address": "EUCLID AV & EAST BV, ,  28203", "PRIORITY": "3", "Blocked": "No, On Roadside or Sidewalk", "UtilityLines": "", "DATETIMECLOSED": "2022-10-05T14:24:55Z" }, "geometry": { "type": "Point", "coordinates": [ -80.855407049849518, 35.210022490436877 ] } },
{ "type": "Feature", "properties": { "OBJECTID": 205, "ProblemType": "Storm Cleanup", "SRNumber": "72266", "STATUS": "CLOSED", "ReportedDate": "2022-10-04T11:14:26Z", "Address": "515 MAGNOLIA AV", "PRIORITY": "5", "Blocked": "No, On Roadside or Sidewalk", "UtilityLines": "", "DATETIMECLOSED": "2022-10-05T14:25:10Z" }, "geometry": { "type": "Point", "coordinates": [ -80.857186636404165, 35.204044755323537 ] } },
{ "type": "Feature", "properties": { "OBJECTID": 206, "ProblemType": "Storm Cleanup", "SRNumber": "72269", "STATUS": "CLOSED", "ReportedDate": "2022-10-04T15:46:42Z", "Address": "16540 CABARRUS RD", "PRIORITY": "1", "Blocked": "Partial But Passible", "UtilityLines": "NO", "DATETIMECLOSED": "2022-10-05T07:22:25Z" }, "geometry": { "type": "Point", "coordinates": [ -80.581858974482046, 35.211412083490728 ] } },
{ "type": "Feature", "properties": { "OBJECTID": 207, "ProblemType": "Storm Cleanup", "SRNumber": "72270", "STATUS": "CLOSED", "ReportedDate": "2022-10-04T16:20:32Z", "Address": "4213 RUTGERS AV", "PRIORITY": "5", "Blocked": "Full No Passage", "UtilityLines": "NO", "DATETIMECLOSED": "2022-10-05T08:33:33Z" }, "geometry": { "type": "Point", "coordinates": [ -80.795978521342192, 35.26780325677489 ] } },
{ "type": "Feature", "properties": { "OBJECTID": 208, "ProblemType": "Storm Cleanup", "SRNumber": "72276", "STATUS": "CLOSED", "ReportedDate": "2022-10-05T09:17:07Z", "Address": "4208 RUTGERS AV", "PRIORITY": "5", "Blocked": "", "UtilityLines": "", "DATETIMECLOSED": "2022-10-05T13:51:08Z" }, "geometry": { "type": "Point", "coordinates": [ -80.796558420734399, 35.267736223304972 ] } },
{ "type": "Feature", "properties": { "OBJECTID": 209, "ProblemType": "Storm Cleanup", "SRNumber": "72277", "STATUS": "CLOSED", "ReportedDate": "2022-10-05T09:18:54Z", "Address": "5639 SUNSTAR CT", "PRIORITY": "1", "Blocked": "", "UtilityLines": "NO", "DATETIMECLOSED": "2022-10-05T13:53:09Z" }, "geometry": { "type": "Point", "coordinates": [ -80.813495433170544, 35.088005576142578 ] } },
{ "type": "Feature", "properties": { "OBJECTID": 210, "ProblemType": "Storm Cleanup", "SRNumber": "72280", "STATUS": "IP", "ReportedDate": "2022-10-05T09:35:07Z", "Address": "4009 COMMONWEALTH AV", "PRIORITY": "5", "Blocked": "Partial But Passible", "UtilityLines": "", "DATETIMECLOSED": null }, "geometry": { "type": "Point", "coordinates": [ -80.78540826296566, 35.200345139780616 ] } },
{ "type": "Feature", "properties": { "OBJECTID": 211, "ProblemType": "Storm Cleanup", "SRNumber": "72281", "STATUS": "CLOSED", "ReportedDate": "2022-10-05T09:58:21Z", "Address": "2405 SOUTH BV", "PRIORITY": "1", "Blocked": "No, On Roadside or Sidewalk", "UtilityLines": "", "DATETIMECLOSED": "2022-10-06T12:53:49Z" }, "geometry": { "type": "Point", "coordinates": [ -80.863427654701738, 35.204454237811909 ] } },
{ "type": "Feature", "properties": { "OBJECTID": 212, "ProblemType": "Storm Cleanup", "SRNumber": "72285", "STATUS": "CLOSED", "ReportedDate": "2022-10-05T13:44:08Z", "Address": "4532 STRANGFORD AV", "PRIORITY": "5", "Blocked": "No, On Roadside or Sidewalk", "UtilityLines": "", "DATETIMECLOSED": "2022-10-06T12:54:45Z" }, "geometry": { "type": "Point", "coordinates": [ -80.748234585250174, 35.232071384109474 ] } },
{ "type": "Feature", "properties": { "OBJECTID": 213, "ProblemType": "Storm Cleanup", "SRNumber": "72291", "STATUS": "CLOSED", "ReportedDate": "2022-10-05T15:58:53Z", "Address": "330 N TRYON ST", "PRIORITY": "5", "Blocked": "", "UtilityLines": "", "DATETIMECLOSED": "2022-10-06T09:55:22Z" }, "geometry": { "type": "Point", "coordinates": [ -80.839674048742211, 35.22899187640774 ] } },
{ "type": "Feature", "properties": { "OBJECTID": 214, "ProblemType": "Storm Cleanup", "SRNumber": "72294", "STATUS": "CLOSED", "ReportedDate": "2022-10-06T09:48:05Z", "Address": "S CHURCH ST & W 4TH ST, ,  28202", "PRIORITY": "5", "Blocked": "", "UtilityLines": "", "DATETIMECLOSED": "2022-10-06T11:58:39Z" }, "geometry": { "type": "Point", "coordinates": [ -80.84531022328612, 35.227338465601051 ] } },
{ "type": "Feature", "properties": { "OBJECTID": 215, "ProblemType": "Storm Cleanup", "SRNumber": "72298", "STATUS": "CLOSED", "ReportedDate": "2022-10-06T12:08:02Z", "Address": "136 ORANGE ST", "PRIORITY": "1", "Blocked": "No, On Roadside or Sidewalk", "UtilityLines": "", "DATETIMECLOSED": "2022-10-10T09:42:54Z" }, "geometry": { "type": "Point", "coordinates": [ -80.808853451919049, 35.199842815630362 ] } },
{ "type": "Feature", "properties": { "OBJECTID": 216, "ProblemType": "Storm Cleanup", "SRNumber": "72300", "STATUS": "CLOSED", "ReportedDate": "2022-10-06T16:07:51Z", "Address": "1838 CASSAMIA PL", "PRIORITY": "1", "Blocked": "No, On Roadside or Sidewalk", "UtilityLines": "NO", "DATETIMECLOSED": "2022-10-10T09:35:54Z" }, "geometry": { "type": "Point", "coordinates": [ -80.820093941377607, 35.179680314535325 ] } },
{ "type": "Feature", "properties": { "OBJECTID": 217, "ProblemType": "Storm Cleanup", "SRNumber": "72304", "STATUS": "CLOSED", "ReportedDate": "2022-10-06T21:36:18Z", "Address": "HOPEDALE AV & QUEENS RD, ,  28207", "PRIORITY": "1", "Blocked": "Full But Passible", "UtilityLines": "NO", "DATETIMECLOSED": "2022-10-10T09:28:01Z" }, "geometry": { "type": "Point", "coordinates": [ -80.827846392558513, 35.196229450302972 ] } },
{ "type": "Feature", "properties": { "OBJECTID": 218, "ProblemType": "Storm Cleanup", "SRNumber": "72305", "STATUS": "IP", "ReportedDate": "2022-10-07T08:30:08Z", "Address": "2012 FREEDOM DR", "PRIORITY": "5", "Blocked": "No, On Roadside or Sidewalk", "UtilityLines": "NO", "DATETIMECLOSED": null }, "geometry": { "type": "Point", "coordinates": [ -80.873910849073923, 35.232371515670899 ] } },
{ "type": "Feature", "properties": { "OBJECTID": 219, "ProblemType": "Storm Cleanup", "SRNumber": "72315", "STATUS": "Planned", "ReportedDate": "2022-10-09T16:12:39Z", "Address": "3216 ROGERS ST", "PRIORITY": "5", "Blocked": "Full No Passage", "UtilityLines": "NO", "DATETIMECLOSED": null }, "geometry": { "type": "Point", "coordinates": [ -80.88268113151959, 35.243304924262617 ] } },
{ "type": "Feature", "properties": { "OBJECTID": 220, "ProblemType": "Storm Cleanup", "SRNumber": "72316", "STATUS": "CLOSED", "ReportedDate": "2022-10-09T16:12:47Z", "Address": "3216 ROGERS ST", "PRIORITY": "5", "Blocked": "No, On Roadside or Sidewalk", "UtilityLines": "NO", "DATETIMECLOSED": "2022-10-10T05:57:30Z" }, "geometry": { "type": "Point", "coordinates": [ -80.88268113151959, 35.243304924262617 ] } },
{ "type": "Feature", "properties": { "OBJECTID": 221, "ProblemType": "Storm Cleanup", "SRNumber": "72318", "STATUS": "IP", "ReportedDate": "2022-10-10T10:22:58Z", "Address": "3617 FRONTENAC AV", "PRIORITY": "5", "Blocked": "No, On Roadside or Sidewalk", "UtilityLines": "", "DATETIMECLOSED": null }, "geometry": { "type": "Point", "coordinates": [ -80.775493875574043, 35.236964611213708 ] } },
{ "type": "Feature", "properties": { "OBJECTID": 222, "ProblemType": "Storm Cleanup", "SRNumber": "72323", "STATUS": "IP", "ReportedDate": "2022-10-10T13:27:40Z", "Address": "3220 ROGERS ST", "PRIORITY": "5", "Blocked": "", "UtilityLines": "", "DATETIMECLOSED": null }, "geometry": { "type": "Point", "coordinates": [ -80.882849712815784, 35.243210180151294 ] } }
]
}
