{
"type": "FeatureCollection",
"name": "Libraries",
"crs": { "type": "name", "properties": { "name": "urn:ogc:def:crs:OGC:1.3:CRS84" } },
"features": [
{ "type": "Feature", "properties": { "OBJECTID": 1, "Name": "Davidson", "Address": "119 South Main St", "City": "Davidson, NC", "Zip": "28036", "Status": "Existing", "created_user": "robert.cerrato@CharlotteNC.gov_charlotte", "created_date": "2022-01-06T01:46:03.743Z", "last_edited_user": "robert.cerrato@CharlotteNC.gov_charlotte", "last_edited_date": "2022-01-06T01:46:03.743Z", "GlobalID": "22437499-b32d-4591-b9ad-6adefbb73c77" }, "geometry": { "type": "Point", "coordinates": [ -80.848311227190393, 35.498434030331602 ] } },
{ "type": "Feature", "properties": { "OBJECTID": 2, "Name": "Cornelius", "Address": "21105 Catawba Av", "City": "Cornelius, NC", "Zip": "28031", "Status": "Existing", "created_user": "robert.cerrato@CharlotteNC.gov_charlotte", "created_date": "2022-01-06T01:46:03.743Z", "last_edited_user": "robert.cerrato@CharlotteNC.gov_charlotte", "last_edited_date": "2022-01-06T01:46:03.743Z", "GlobalID": "aa3ef1d2-1842-4d46-bd0f-c5986aa6941a" }, "geometry": { "type": "Point", "coordinates": [ -80.864079771324697, 35.483290428287901 ] } },
{ "type": "Feature", "properties": { "OBJECTID": 3, "Name": "North County Regional", "Address": "16500 Holly Crest Ln", "City": "Huntersville, NC", "Zip": "28078", "Status": "Existing", "created_user": "robert.cerrato@CharlotteNC.gov_charlotte", "created_date": "2022-01-06T01:46:03.743Z", "last_edited_user": "robert.cerrato@CharlotteNC.gov_charlotte", "last_edited_date": "2022-01-06T01:46:03.743Z", "GlobalID": "9c90d755-d88a-4c8e-82b8-804f19b067b6" }, "geometry": { "type": "Point", "coordinates": [ -80.863988456655704, 35.440680905524701 ] } },
{ "type": "Feature", "properties": { "OBJECTID": 4, "Name": "Mountain Island", "Address": "4420 Hoyt Gavin Wy", "City": "Charlotte, NC", "Zip": "28214", "Status": "Existing", "created_user": "robert.cerrato@CharlotteNC.gov_charlotte", "created_date": "2022-01-06T01:46:03.743Z", "last_edited_user": "robert.cerrato@CharlotteNC.gov_charlotte", "last_edited_date": "2022-01-06T01:46:03.743Z", "GlobalID": "5ed48df1-b6ea-45b1-9370-15ba36afd270" }, "geometry": { "type": "Point", "coordinates": [ -80.9605297325175, 35.335013135544102 ] } },
{ "type": "Feature", "properties": { "OBJECTID": 5, "Name": "University City Regional", "Address": "301 E WT Harris Bv", "City": "Charlotte, NC", "Zip": "28262", "Status": "Existing", "created_user": "robert.cerrato@CharlotteNC.gov_charlotte", "created_date": "2022-01-06T01:46:03.743Z", "last_edited_user": "robert.cerrato@CharlotteNC.gov_charlotte", "last_edited_date": "2022-01-06T01:46:03.743Z", "GlobalID": "7255327c-aace-4f10-82f6-020fa91f6a6c" }, "geometry": { "type": "Point", "coordinates": [ -80.746671168912997, 35.302910025345199 ] } },
{ "type": "Feature", "properties": { "OBJECTID": 6, "Name": "Beatties Ford Rd Regional", "Address": "2412 Beatties Ford Rd", "City": "Charlotte, NC", "Zip": "28216", "Status": "Existing", "created_user": "robert.cerrato@CharlotteNC.gov_charlotte", "created_date": "2022-01-06T01:46:03.743Z", "last_edited_user": "robert.cerrato@CharlotteNC.gov_charlotte", "last_edited_date": "2022-01-06T01:46:03.743Z", "GlobalID": "0c07b204-a7bb-4a40-a566-cec36295caf9" }, "geometry": { "type": "Point", "coordinates": [ -80.853443793728303, 35.2677296378478 ] } },
{ "type": "Feature", "properties": { "OBJECTID": 7, "Name": "Sugar Creek", "Address": "4045 N Tryon St", "City": "Charlotte, NC", "Zip": "28206", "Status": "Existing", "created_user": "robert.cerrato@CharlotteNC.gov_charlotte", "created_date": "2022-01-06T01:46:03.743Z", "last_edited_user": "robert.cerrato@CharlotteNC.gov_charlotte", "last_edited_date": "2022-01-06T01:46:03.743Z", "GlobalID": "4f5d5093-5843-4156-ba34-4398a9387387" }, "geometry": { "type": "Point", "coordinates": [ -80.797512110493798, 35.257575346025 ] } },
{ "type": "Feature", "properties": { "OBJECTID": 10, "Name": "Main Library", "Address": "310 N Tryon St", "City": "Charlotte, NC", "Zip": "28202", "Status": "Existing", "created_user": "robert.cerrato@CharlotteNC.gov_charlotte", "created_date": "2022-01-06T01:46:03.743Z", "last_edited_user": "robert.cerrato@CharlotteNC.gov_charlotte", "last_edited_date": "2022-01-06T01:46:03.743Z", "GlobalID": "f1586b8b-a112-4a1e-9b77-b234082a3fcc" }, "geometry": { "type": "Point", "coordinates": [ -80.839928191331794, 35.228516663666397 ] } },
{ "type": "Feature", "properties": { "OBJECTID": 11, "Name": "ImaginOn", "Address": "300 E 7th St", "City": "Charlotte, NC", "Zip": "28202", "Status": "Existing", "created_user": "robert.cerrato@CharlotteNC.gov_charlotte", "created_date": "2022-01-06T01:46:03.743Z", "last_edited_user": "robert.cerrato@CharlotteNC.gov_charlotte", "last_edited_date": "2022-01-06T01:46:03.743Z", "GlobalID": "a6450009-a93a-4534-bde6-505b9a1db916" }, "geometry": { "type": "Point", "coordinates": [ -80.837735394624701, 35.227222642929597 ] } },
{ "type": "Feature", "properties": { "OBJECTID": 13, "Name": "Plaza Midwood", "Address": "1623 Central Av", "City": "Charlotte, NC", "Zip": "28205", "Status": "Existing", "created_user": "robert.cerrato@CharlotteNC.gov_charlotte", "created_date": "2022-01-06T01:46:03.743Z", "last_edited_user": "robert.cerrato@CharlotteNC.gov_charlotte", "last_edited_date": "2022-01-06T01:46:03.743Z", "GlobalID": "b8e9c53c-6949-4c60-a618-16e97ba34de8" }, "geometry": { "type": "Point", "coordinates": [ -80.811029767047401, 35.220620430765301 ] } },
{ "type": "Feature", "properties": { "OBJECTID": 14, "Name": "Hickory Grove", "Address": "5935 Hickory Grove Rd", "City": "Charlotte, NC", "Zip": "28215", "Status": "Existing", "created_user": "robert.cerrato@CharlotteNC.gov_charlotte", "created_date": "2022-01-06T01:46:03.743Z", "last_edited_user": "robert.cerrato@CharlotteNC.gov_charlotte", "last_edited_date": "2022-01-06T01:46:03.743Z", "GlobalID": "463f23b0-d15f-48bf-96d5-01ce4b257283" }, "geometry": { "type": "Point", "coordinates": [ -80.728043307587797, 35.223057357397799 ] } },
{ "type": "Feature", "properties": { "OBJECTID": 15, "Name": "West Boulevard", "Address": "2157 West Bv", "City": "Charlotte, NC", "Zip": "28208", "Status": "Existing", "created_user": "robert.cerrato@CharlotteNC.gov_charlotte", "created_date": "2022-01-06T01:46:03.743Z", "last_edited_user": "robert.cerrato@CharlotteNC.gov_charlotte", "last_edited_date": "2022-01-06T01:46:03.743Z", "GlobalID": "2f97898f-a73b-4e11-b087-76e3d968d3bb" }, "geometry": { "type": "Point", "coordinates": [ -80.896174440119296, 35.211216748319004 ] } },
{ "type": "Feature", "properties": { "OBJECTID": 16, "Name": "Myers Park", "Address": "1361 Queens Rd", "City": "Charlotte, NC", "Zip": "28207", "Status": "Existing", "created_user": "robert.cerrato@CharlotteNC.gov_charlotte", "created_date": "2022-01-06T01:46:03.743Z", "last_edited_user": "robert.cerrato@CharlotteNC.gov_charlotte", "last_edited_date": "2022-01-06T01:46:03.743Z", "GlobalID": "d133cbcf-4659-4b64-b34f-9bbad2ec0e77" }, "geometry": { "type": "Point", "coordinates": [ -80.827401763360299, 35.196407641827498 ] } },
{ "type": "Feature", "properties": { "OBJECTID": 17, "Name": "Scaleybark", "Address": "101 Scaleybark Rd", "City": "Charlotte, NC", "Zip": "28209", "Status": "Existing", "created_user": "robert.cerrato@CharlotteNC.gov_charlotte", "created_date": "2022-01-06T01:46:03.743Z", "last_edited_user": "robert.cerrato@CharlotteNC.gov_charlotte", "last_edited_date": "2022-01-06T01:46:03.743Z", "GlobalID": "488ba739-3036-4dbb-a788-180e9a1692ab" }, "geometry": { "type": "Point", "coordinates": [ -80.875191911297307, 35.189080350669499 ] } },
{ "type": "Feature", "properties": { "OBJECTID": 18, "Name": "Independence Regional", "Address": "6000 Conference Dr", "City": "Charlotte, NC", "Zip": "28212", "Status": "Existing", "created_user": "robert.cerrato@CharlotteNC.gov_charlotte", "created_date": "2022-01-06T01:46:03.743Z", "last_edited_user": "robert.cerrato@CharlotteNC.gov_charlotte", "last_edited_date": "2022-01-06T01:46:03.743Z", "GlobalID": "7e5855a9-0987-4629-b495-4f9ed786c623" }, "geometry": { "type": "Point", "coordinates": [ -80.7554247995987, 35.176467355733202 ] } },
{ "type": "Feature", "properties": { "OBJECTID": 19, "Name": "Mint Hill", "Address": "6840 Matthews-Mint Hill Rd", "City": "Mint Hill, NC", "Zip": "28227", "Status": "Existing", "created_user": "robert.cerrato@CharlotteNC.gov_charlotte", "created_date": "2022-01-06T01:46:03.743Z", "last_edited_user": "robert.cerrato@CharlotteNC.gov_charlotte", "last_edited_date": "2022-01-06T01:46:03.743Z", "GlobalID": "d841be11-6047-46dc-b32e-14a6e6d114ce" }, "geometry": { "type": "Point", "coordinates": [ -80.6588640938417, 35.1717136818732 ] } },
{ "type": "Feature", "properties": { "OBJECTID": 20, "Name": "Morrison Regional", "Address": "7015 Morrison Bv", "City": "Charlotte, NC", "Zip": "28211", "Status": "Existing", "created_user": "robert.cerrato@CharlotteNC.gov_charlotte", "created_date": "2022-01-06T01:46:03.743Z", "last_edited_user": "robert.cerrato@CharlotteNC.gov_charlotte", "last_edited_date": "2022-01-06T01:46:03.743Z", "GlobalID": "450c727e-8506-4467-ba7b-2fa2e64fe692" }, "geometry": { "type": "Point", "coordinates": [ -80.822933995761204, 35.151740625189802 ] } },
{ "type": "Feature", "properties": { "OBJECTID": 21, "Name": "Matthews", "Address": "230 Matthews Station St", "City": "Matthews, NC", "Zip": "28105", "Status": "Existing", "created_user": "robert.cerrato@CharlotteNC.gov_charlotte", "created_date": "2022-01-06T01:46:03.743Z", "last_edited_user": "robert.cerrato@CharlotteNC.gov_charlotte", "last_edited_date": "2022-01-06T01:46:03.743Z", "GlobalID": "5b71649a-05a2-4b60-bf2e-3e3dd25d4997" }, "geometry": { "type": "Point", "coordinates": [ -80.7185175053542, 35.115846627563997 ] } },
{ "type": "Feature", "properties": { "OBJECTID": 22, "Name": "Steele Creek", "Address": "13620 Steele Creek Rd", "City": "Charlotte, NC", "Zip": "28273", "Status": "Existing", "created_user": "robert.cerrato@CharlotteNC.gov_charlotte", "created_date": "2022-01-06T01:46:03.743Z", "last_edited_user": "robert.cerrato@CharlotteNC.gov_charlotte", "last_edited_date": "2022-01-06T01:46:03.743Z", "GlobalID": "c78f1780-3aee-4967-b480-9723fa0233ae" }, "geometry": { "type": "Point", "coordinates": [ -80.988954507109597, 35.1067764843962 ] } },
{ "type": "Feature", "properties": { "OBJECTID": 24, "Name": "South County Regional", "Address": "5801 Rea Rd", "City": "Charlotte, NC", "Zip": "28277", "Status": "Existing", "created_user": "robert.cerrato@CharlotteNC.gov_charlotte", "created_date": "2022-01-06T01:46:03.743Z", "last_edited_user": "robert.cerrato@CharlotteNC.gov_charlotte", "last_edited_date": "2022-01-06T01:46:03.743Z", "GlobalID": "277960a3-5084-4084-8726-55d44bf34d6d" }, "geometry": { "type": "Point", "coordinates": [ -80.811557006693903, 35.086521778322798 ] } },
{ "type": "Feature", "properties": { "OBJECTID": 832, "Name": "David Nabow", "Address": "526 S Church St", "City": "Charlotte, NC", "Zip": "28202 ", "Status": "Existing", "created_user": "robert.cerrato@CharlotteNC.gov_charlotte", "created_date": "2022-01-06T01:46:03.743Z", "last_edited_user": "robert.cerrato@CharlotteNC.gov_charlotte", "last_edited_date": "2022-01-06T01:46:03.743Z", "GlobalID": "6812ccb5-ffc2-47cd-adc0-b3255fbf36f4" }, "geometry": { "type": "Point", "coordinates": [ -80.849351480103806, 35.225061451217499 ] } },
{ "type": "Feature", "properties": { "OBJECTID": 833, "Name": "Billy Graham", "Address": "4330 Westmont Dr", "City": "Charlotte, NC", "Zip": "28217", "Status": "Existing", "created_user": "robert.cerrato@CharlotteNC.gov_charlotte", "created_date": "2022-01-06T01:46:03.743Z", "last_edited_user": "robert.cerrato@CharlotteNC.gov_charlotte", "last_edited_date": "2022-01-06T01:46:03.743Z", "GlobalID": "1d11ced8-42c4-4fdb-9ecb-78fd6048fb00" }, "geometry": { "type": "Point", "coordinates": [ -80.909273973964901, 35.190500928934497 ] } },
{ "type": "Feature", "properties": { "OBJECTID": 834, "Name": "The Asian Herald ", "Address": "1339 Baxter St", "City": "Charlotte, NC", "Zip": "28204", "Status": "Existing", "created_user": "robert.cerrato@CharlotteNC.gov_charlotte", "created_date": "2022-01-06T01:46:03.743Z", "last_edited_user": "robert.cerrato@CharlotteNC.gov_charlotte", "last_edited_date": "2022-01-06T01:46:03.743Z", "GlobalID": "d3ffe96a-87c7-4d2b-b7c0-1afc7418817f" }, "geometry": { "type": "Point", "coordinates": [ -80.834421596702896, 35.2109489812552 ] } },
{ "type": "Feature", "properties": { "OBJECTID": 835, "Name": "CPCC Central Campus", "Address": "1201 Elizabeth Av", "City": "Charlotte, NC", "Zip": "28204", "Status": "Existing", "created_user": "robert.cerrato@CharlotteNC.gov_charlotte", "created_date": "2022-01-06T01:46:03.743Z", "last_edited_user": "robert.cerrato@CharlotteNC.gov_charlotte", "last_edited_date": "2022-01-06T01:46:03.743Z", "GlobalID": "6be58ee1-9684-44ff-ae46-308db3bb875e" }, "geometry": { "type": "Point", "coordinates": [ -80.831303734737006, 35.218020900206703 ] } },
{ "type": "Feature", "properties": { "OBJECTID": 836, "Name": "James B. Duke Memorial ", "Address": "100 Beatties Ford Rd", "City": "Charlotte, NC", "Zip": "28216", "Status": "Existing", "created_user": "robert.cerrato@CharlotteNC.gov_charlotte", "created_date": "2022-01-06T01:46:03.743Z", "last_edited_user": "robert.cerrato@CharlotteNC.gov_charlotte", "last_edited_date": "2022-01-06T01:46:03.743Z", "GlobalID": "a281a40b-338a-4707-9d88-a3137ada8058" }, "geometry": { "type": "Point", "coordinates": [ -80.8566929673636, 35.241806521354 ] } },
{ "type": "Feature", "properties": { "OBJECTID": 837, "Name": "Charlotte AHEC ", "Address": "1000 Blythe Bv", "City": "Charlotte, NC", "Zip": "28203", "Status": "Existing", "created_user": "robert.cerrato@CharlotteNC.gov_charlotte", "created_date": "2022-01-06T01:46:03.743Z", "last_edited_user": "robert.cerrato@CharlotteNC.gov_charlotte", "last_edited_date": "2022-01-06T01:46:03.743Z", "GlobalID": "61abb8ae-f993-42ee-887b-07d11408a877" }, "geometry": { "type": "Point", "coordinates": [ -80.840056159609702, 35.203707574441303 ] } },
{ "type": "Feature", "properties": { "OBJECTID": 838, "Name": "J. Murrey Atkins", "Address": "9201 University City Bv", "City": "Charlotte, NC", "Zip": "28223", "Status": "Existing", "created_user": "robert.cerrato@CharlotteNC.gov_charlotte", "created_date": "2022-01-06T01:46:03.743Z", "last_edited_user": "robert.cerrato@CharlotteNC.gov_charlotte", "last_edited_date": "2022-01-06T01:46:03.743Z", "GlobalID": "b2bf4244-8d90-4e44-906c-ab389ffcb868" }, "geometry": { "type": "Point", "coordinates": [ -80.732211790761298, 35.305539226429602 ] } },
{ "type": "Feature", "properties": { "OBJECTID": 839, "Name": "E H Little ", "Address": "202 D Rd", "City": "Davidson, NC ", "Zip": "28035 ", "Status": "Existing", "created_user": "robert.cerrato@CharlotteNC.gov_charlotte", "created_date": "2022-01-06T01:46:03.743Z", "last_edited_user": "robert.cerrato@CharlotteNC.gov_charlotte", "last_edited_date": "2022-01-06T01:46:03.743Z", "GlobalID": "b5f5cc2b-fc32-418e-b0b0-aaa238bf9952" }, "geometry": { "type": "Point", "coordinates": [ -80.8439826754351, 35.499747454874303 ] } },
{ "type": "Feature", "properties": { "OBJECTID": 840, "Name": "The Levine-Sklut Judaic ", "Address": "5007 Providence Rd #107 ", "City": "Charlotte, NC", "Zip": "28226 ", "Status": "Existing", "created_user": "robert.cerrato@CharlotteNC.gov_charlotte", "created_date": "2022-01-06T01:46:03.743Z", "last_edited_user": "robert.cerrato@CharlotteNC.gov_charlotte", "last_edited_date": "2022-01-06T01:46:03.743Z", "GlobalID": "fe6209fd-5f35-4d5e-a407-4b769afc1959" }, "geometry": { "type": "Point", "coordinates": [ -80.785897998781095, 35.147476585304297 ] } },
{ "type": "Feature", "properties": { "OBJECTID": 841, "Name": "Everett", "Address": "1900 Selwyn Av", "City": "Charlotte, NC", "Zip": "28207", "Status": "Existing", "created_user": "robert.cerrato@CharlotteNC.gov_charlotte", "created_date": "2022-01-06T01:46:03.743Z", "last_edited_user": "robert.cerrato@CharlotteNC.gov_charlotte", "last_edited_date": "2022-01-06T01:46:03.743Z", "GlobalID": "382322f6-cdb5-4cfd-98ed-26209c285b52" }, "geometry": { "type": "Point", "coordinates": [ -80.833551282383198, 35.1890261409484 ] } }
]
}
